School Code,google_place_id,lat,lng
0001,ChIJ-dRd2TkioFMR8R3m4xHqDJI,53.53997409999999,-113.5072378
0009,ChIJyWVIgQhKbFMRDmoERfAGtK0,49.79999,-112.13994
0011,ChIJ9xVj58wmb1MRx9cqKwKZI1o,49.1991402,-113.3263692
0012,ChIJxzXkY_9ucVMRZ7y-98izgOw,51.0694041,-114.1522477
0013,EjIxNTE4IENlbnRyZSBTdCBOICMxOTEsIENhbGdhcnksIEFCIFQyRSAyUjksIENhbmFkYSIfGh0KFgoUChIJHXRg4V1lcVMRHoYvf8pXhsISAzE5MQ,51.0655414,-114.0616729
0014,ChIJpWLVkO4_v1MR9yA37-EXrtM,58.187466,-116.4069991
0017,ChIJK9ojhUYioFMRQW5gA08_lSg,53.5398777,-113.4922962
0018,ChIJC40ichIioFMRRYIdzV4fN4g,53.5214108,-113.4904262
0019,ChIJ___L9mTCoVMRovs40spVtNM,54.1542202,-113.8626438
0020,ChIJG6L3TLOHblMR3G_4CQOvfpM,49.694165,-112.8158343
0021,ChIJF-z6qsltcVMRyWoMSHbQ4KE,51.04456800000001,-114.2259537
0022,ChIJ_ezWuQc2bFMR-1Il-Q_x2OA,49.7855841,-112.1470679
0023,EjIxMDIwNSAxMDEgU3QgTlcgIzEwMCwgRWRtb250b24sIEFCIFQ1SiAyWTksIENhbmFkYSIfGh0KFgoUChIJcZv-Wk8ioFMRKASknTO9x_QSAzEwMA,53.5436826,-113.4933684
0024,ChIJb2xx2LFVdFMR_Kj8w4R6zzw,52.29511489999999,-113.8065472
0026,ChIJMW_hjmMioFMRIDLANoJu4kc,53.5299999,-113.4630613
0028,ChIJh4lpbx4hoFMR35pvyrcnp-s,53.5468357,-113.6169212
0030,ChIJz5I1csZxcVMRL6oSa9b2Vq8,51.0153078,-114.1165393
0031,ChIJZV3OtQJucVMR9AXiP4JGTdo,51.024515,-114.158736
0032,ChIJ5Uvf0it7cVMREjPFVre443E,51.0559048,-113.9864072
0064,ChIJTepQZrsSc1MRQI4qsIf7i0o,51.42575830000001,-112.6932692
0067,ChIJKy4tRHtPllMRUnlwdwode18,56.2323403,-117.2898995
0095,ChIJ-dRd2TkioFMR8R3m4xHqDJI,53.53997409999999,-113.5072378
0098,ChIJV0jCsaeJn1MR-Wb_Jnmldts,53.5706612,-113.7902742
0099,Ei80NjAxIDYzIEF2ZSAjNDAwMCwgQmFycmhlYWQsIEFCIFQ3TiAxUDQsIENhbmFkYSIgGh4KFgoUChIJt0fVlahen1MROGuL_gO0xZMSBDQwMDA,54.1371993,-114.3960983
0119,ChIJzwTV8U1wcVMRSpvbj2MCgos,51.0075757,-114.0818118
0123,ChIJSZPE8QfCc1MR_iTLsJ2wApk,51.321685,-113.6038872
0124,ChIJXaVudJHjDFMRqSZkvbXcnWA,51.5285044,-111.2051465
0135,ChIJt58PmVpwcVMRfUjkAMVhWc0,51.0077214,-114.0712261
0136,ChIJg5uYjgckoFMR75HPSu3echk,53.5860025,-113.5648572
0140,Eiw4OTE3IDExMiBTdCBOVywgRWRtb250b24sIEFCIFQ2RyAyUDgsIENhbmFkYSIxEi8KFAoSCXUq9JgfIqBTERy_6japmTFuENVFKhQKEgnV8XAayyOgUxGi2d3mjB04Ag,53.5247605,-113.520827
0151,ChIJXf0EVzsjoFMRtQ6AQeExpbc,53.5760072,-113.4485556
0167,ChIJeePqZ44zDFMRNCEFN9NeYbU,51.683543,-110.260673
0170,ChIJO4ifCZcNclMRxaZCPkSL71k,50.56964800000001,-112.8828449
0173,ChIJuwn451AgoFMRNcG8F-v-q6E,53.5223784,-113.6135539
0179,ChIJ50YqEJ1AcVMRpKJSQeOTwvU,51.1887572,-114.4672085
0209,ChIJVVVV0LFkcVMRSOYc_5xO-U8,51.0753007,-113.9560488
0212,ChIJD7VpOCZxcVMRqByO4JvbGRU,50.96882489999999,-114.0605899
0218,ChIJn0V3hgo9clMRnG6Iz3jTunc,50.7373379,-113.151159
0230,ChIJpZDRub1vcVMRM3ay_uJOVWI,51.0635669,-114.108138
0234,ChIJdeu-B_AGblMRLFnc1rPZUaM,50.2412883,-113.1480531
0243,ChIJJYca6i2GblMRpMZ8h4Y1gGQ,49.6853525,-112.8369169
0249,ChIJLWHjUCZlcVMRluVjXSMl6eY,51.0694674,-114.0086355
0250,ChIJLWHjUCZlcVMRluVjXSMl6eY,51.0694674,-114.0086355
0251,ChIJXbPMsAtvcVMRJTdRlcbLgGc,51.0784218,-114.1245998
0254,ChIJxzPGiBhwcVMRhX2M2m7cO1M,51.0333847,-114.0759875
0263,ChIJsbqIV5ZocVMR8qEaox-U-go,51.136656,-114.1594428
0264,ChIJa9Hcl7pwcVMRFcs5Oq6kmxg,50.97870589999999,-114.0118755
0270,ChIJv_sbPcyHblMR2Xnb96yw3uE,49.69436109999999,-112.8367575
0274,ChIJ6fon2o1wcVMR-cvhV--SEx8,50.99682420000001,-114.0355447
0280,ChIJLWHjUCZlcVMRluVjXSMl6eY,51.0694674,-114.0086355
0281,ChIJLWHjUCZlcVMRluVjXSMl6eY,51.0694674,-114.0086355
0284,ChIJ9eeSTmB3cVMRAjR-xemfuY0,50.9515153,-113.9700672
0285,ChIJwz_43eFkcVMRl2PrkGEL6qI,51.081096,-114.0126693
0289,ChIJX4P5Uy9UdFMRmA96cirSmGU,52.2664711,-113.8105924
0290,ChIJMZYku0xWkFMRkV5hHcly4N4,55.3268815,-119.5549294
0297,ChIJ4ceijC0ioFMRmDyMuhGvuWA,53.5438722,-113.5239991
0298,ChIJtaoxpbAPClMRo-XYEvPWPYA,53.3815244,-111.5297
0299,ChIJ7dZTHUScoFMRe7ZRkstr4js,53.4946496,-112.0536518
0302,ChIJS_ajzXt2cVMRBWCQ_PKPkZw,50.9048346,-114.0567117
0305,ChIJvRbiZq-HblMRSqNNkGrK1iU,49.70512739999999,-112.8121192
0308,ChIJU7Z2V-tkcVMRPDScRLF0718,51.08847859999999,-113.986084
0311,ChIJ9cgcII9FllMRJ9iLxliXQ44,56.245285,-117.2970501
0312,ChIJjyCx256JnVMRxy_KcGvCPoM,52.3251528,-113.8609792
0313,ChIJ6QOv42x3cVMRnE9u8v7jEjc,50.9413401,-113.9898697
0314,ChIJ4wmTzHUtoFMR5i0L8rbKraA,53.79936,-113.65431
0319,EjYxMDcyMCAxMTcgQXZlICMxMDUsIEdyYW5kZSBQcmFpcmllLCBBQiBUOFYgN043LCBDYW5hZGEiHxodChYKFAoSCaeC1MP9k5BTEUFZYC0fLd1iEgMxMDU,55.1863094,-118.8160885
0323,ChIJT6USPZginFMRaAAv03omeOY,53.572522,-116.4764325
0324,ChIJFQ00fY1kpVMRyzSi3whyo9U,55.845505,-110.905504
0325,ChIJO15us6YjoFMRvqD7Tf3uLro,53.5711899,-113.4985069
0326,ChIJgd7Tf9O7ClMRKgu_pSeGDq8,53.0110063,-112.8377226
0327,ChIJfeXRj0Utm1MROvF2q8f1Oys,53.8885721,-119.1142817
0333,ChIJg4-MpI9mcVMR0pvMfIKNA0k,51.1465699,-114.06031
0334,ChIJUdltCa7ShFMRBkZTQWupmvw,53.8642975,-119.1443822
0335,ChIJH92V_pFxcVMRWkFl-5RMXk0,51.0003821,-114.135721
0336,ChIJrT1V0BVfcVMRcHvMA0jGFlU,51.2917856,-114.0358707
0338,ChIJkQ_FxxwmoFMRXaXlYOvazJM,53.6528157,-113.6621807
0339,ChIJNxqMQoFTvFMRzzWH2rOqJeg,56.54698399999999,-115.256549
0340,EjExOTE1IDIwdGggQXZlICMxMjM3LCBDb2FsZGFsZSwgQUIgVDFNIDFOMSwgQ2FuYWRhIiAaHgoWChQKEgmRUTVe1oFuUxGsjqTYBIy3AhIEMTIzNw,49.7271639,-112.6224852
0341,ChIJaYWv1xrNc1MRaTjuXfRztHw,51.0378827,-113.4216936
0342,ChIJaYWv1xrNc1MRaTjuXfRztHw,51.0378827,-113.4216936
0344,ChIJ2fz2bqIioFMRKTh_JkvVjlc,53.5322831,-113.4169729
0346,ChIJmVaBaKFfcVMRUu1Tez-cCRY,51.2714742,-114.0154986
0348,ChIJw4qhIGp2cVMRNL-v2tXW3CY,50.90182679999999,-114.0309608
0349,ChIJMQOFdZQioFMRNijeX8Y8Kr0,53.5398471,-113.434551
0367,ChIJv14r3giRkFMRUs2QC0Xpr5M,55.14620000000001,-118.83491
0369,ChIJJXcdos-7ClMRFKORilyWC0s,53.0199237,-112.8339947
0374,ChIJzwTV8U1wcVMRSpvbj2MCgos,51.0075757,-114.0818118
0375,ChIJj2Zz62ONolMRydB-SlcIQXc,55.2723922,-114.7801488
0378,ChIJFQJdVHQmoFMRxoH2uAK4BBY,53.6371583,-113.6326107
0379,Eik1NDE1IENvbGxlZ2UgQXZlLCBMYWNvbWJlLCBBQiBUNEwsIENhbmFkYSIxEi8KFAoSCZvbUIlHBHVTEY6K7qegYR1eEKcqKhQKEglDpp-ORgR1UxFD-pJRobXYww,52.4888023,-113.73813
0380,Ei81MjA1IDUwIEF2ZSAjMTQ3MSwgU3QuIFBhdWwsIEFCIFQwQSAzQTEsIENhbmFkYSIgGh4KFgoUChIJU_RldgQ5p1MR2Z49nYnSo0MSBDE0NzE,53.9908728,-111.3031994
0381,ChIJVz2JNqzLp1MRoKG7G-S2DyM,54.4485847,-110.2027285
0383,ChIJ0dW68zZUdFMRDpUDE7LHFXQ,52.2690914,-113.8106896
0384,ChIJayng8u_Mc1MRLUupA6CXyNM,51.042981,-113.3942852
0385,ChIJk6xtY07_c1MRIvC9zUFKudw,52.02763359999999,-113.948677
0386,ChIJ8damLwwioFMRNr_4niPMx04,53.517637,-113.489114
0387,ChIJ4c9DGpxocVMRwimN1SuiqZ8,51.1424308,-114.1488504
0389,ChIJKQ_idLFwcVMR7pQc2boJ4so,50.9740975,-114.0099716
0390,ChIJY8reax1pcVMRxk8XHWpxuws,51.1334418,-114.2057024
0391,ChIJL8Aa44CXcVMRy0QsqWMKs7c,50.709643,-113.965457
0392,ChIJdy1gNG_MdFMRhgaM0-B2OxU,52.3273205,-112.7047998
0393,ChIJDU93jDAyE1MRE9s05hirJxc,49.969226,-110.5868132
0401,ChIJ7dZTHUScoFMRldMeSveZ08Y,53.4946496,-112.0536518
0404,ChIJj4XuVG5fcVMRKmMNLhu0WQQ,51.2905218,-114.0128395
0405,ChIJX9FlLW_lbFMRyqWc35VBIm0,49.8674022,-111.3794447
0424,ChIJV3I_bq12cVMRCKfwYSnqBlA,50.9478808,-114.0895943
0428,ChIJl3fZyD5rcVMR9UpMwvdF9kg,51.0946282,-114.356056
0430,ChIJiW_-U2pablMRjl8sNGLXlLQ,49.7223893,-113.4030896
0431,ChIJK129URFVl1MR5UN5W3FGvY8,55.166667,-117.866667
0432,ChIJmyGMPMVxcVMRRMLXQRFh5DY,51.019369,-114.120998
0433,ChIJtwGxwaTWC1MRbT2QBOOKFg4,52.834933,-110.865405
0434,ChIJvQ0GjuxFllMRVAPFYO28Ohk,56.2569405,-117.2890859
0435,ChIJrxoOJMYnmFMRJM5piBo_jfY,55.4328449,-116.488581
0437,ChIJLWHjUCZlcVMRluVjXSMl6eY,51.0694674,-114.0086355
0438,ChIJU7oGj6TWC1MRQ7welgzq6q0,52.8360365,-110.8650512
0439,ChIJExKHhatjbVMRuIZCdSeje5Y,50.56914099999999,-111.8957939
0441,ChIJ0YDazsKUuFMRQkNJRSenKOk,58.4947364,-115.1478669
0442,ChIJzwTV8U1wcVMRSpvbj2MCgos,51.0075757,-114.0818118
0443,ChIJzwTV8U1wcVMRSpvbj2MCgos,51.0075757,-114.0818118
0444,ChIJTxJ2dok_cVMRtN6ZKNrYNrc,51.1645054,-114.4532015
0474,ChIJ0YDazsKUuFMRQkNJRSenKOk,58.4947364,-115.1478669
0475,ChIJ0YDazsKUuFMRQkNJRSenKOk,58.4947364,-115.1478669
0478,ChIJ0xVVcV17cVMRECJY8XnOpx8,51.0519805,-113.9302107
0481,ChIJiceou76WkFMRQZXvn58vUVE,55.1796221,-118.7611989
0482,ChIJ3XcEnYYpl1MRA87wxq-8LGM,55.7363469,-118.3903174
0483,ChIJh4lpbx4hoFMR35pvyrcnp-s,53.5468357,-113.6169212
0484,ChIJlzDUI74joFMR5d0ImRf6xtc,53.5710828,-113.522451
0485,ChIJ5YIl2PQioFMREYef8gwTRQU,53.54022,-113.45757
0486,ChIJ2UsjVV3KDFMRr3C2AYMl_JQ,51.6442555,-111.9258289
0487,ChIJacFHUUODwFMR0GMgkMsTD9c,58.51280819999999,-117.1440488
0488,ChIJDxvcormYdVMR6x9eia9Y1A4,52.6396816,-114.2358931
0489,ChIJoeu6stmydVMRYz0zTuIxERE,52.29921,-114.11215
0519,ChIJdUZsCHSVcVMRCK0DMLQL4gI,50.5902837,-113.8944993
0520,ChIJ9dCHi_4sE1MRdQEHxxrIGfU,50.0300834,-110.6842089
0521,ChIJa9Hcl7pwcVMRFcs5Oq6kmxg,50.97870589999999,-114.0118755
0524,ChIJl9tAptmydVMRlsAD8YjC4Mo,52.2997177,-114.1114398
0528,ChIJOYTe00kjoFMRQESsR82uuQE,53.5879742,-113.4448058
0531,ChIJgQC0IyzZdVMRTYkCUCaN_gQ,52.3742159,-114.919753
0532,ChIJ7xiLIH-woFMRySfstg8rK5E,53.7103441,-111.7461105
0533,ChIJ-2RAG5jtCVMRGogqVoNilFM,53.3551314,-110.8397258
0534,ChIJ1aYPYcO-b1MRbCs65Fsg-Jo,49.583426,-114.164098
0535,ChIJKU1ZbTlmcVMRIuddX6hjUxc,51.1502269,-114.1196295
0536,Ei81MDAgTWFydGluZGFsZSBCbHZkIE5FLCBDYWxnYXJ5LCBBQiBUM0osIENhbmFkYSIxEi8KFAoSCRMHCC2BY3FTEbANJn_Ph5r8EPQDKhQKEgnNWodTm2NxUxFKXhGVvHN5fA,51.1149533,-113.9673015
0537,ChIJVZPVof5tcVMRoAgsjAaQwck,51.0236022,-114.1820921
0538,ChIJPXL5-VNjcVMRPqAr9LUtBjw,51.0779294,-113.9304252
0574,ChIJnaW6Di5UdFMRR3Hztq88okk,52.271418,-113.8070093
0575,ChIJaYWv1xrNc1MRaTjuXfRztHw,51.0378827,-113.4216936
0576,ChIJGZz1oysnb1MRpHPPaKKY-Ec,49.1970874,-113.3082101
0577,ChIJh4lpbx4hoFMR35pvyrcnp-s,53.5468357,-113.6169212
0580,ChIJ2UsjVV3KDFMRr3C2AYMl_JQ,51.6442555,-111.9258289
0581,ChIJFT95rdl1cVMR_Yc1py0m_GM,50.8979192,-114.064935
0585,ChIJKybH9Bn_cVMRa5d7JLF4ikM,50.4047691,-113.2605833
0586,ChIJw84Fn6yudVMRLzhuKupfyn8,52.40684,-113.99759
0587,ChIJMTvG8JjtCVMRhoxRmy25imI,53.3523495,-110.839494
0588,ChIJq8CdOkdmcVMRgILdjOibcPs,51.1510251,-114.1102323
0589,ChIJ4-84J7V1cVMRN-d4Sdk2TfY,50.90163159999999,-114.1037178
0590,ChIJxb46zVWRkFMRkDAmtNOYFzg,55.1837606,-118.8086104
0591,ChIJGQfchL8Yl1MRo43FZOZeYZw,55.782235,-117.88065
0592,ChIJaYWv1xrNc1MRaTjuXfRztHw,51.0378827,-113.4216936
0593,ChIJ3YAR9-XMc1MR_DIcMqBd408,51.03984149999999,-113.3927292
0594,ChIJj3sQSBXEcFMRHZuOLNHlESs,51.049558,-115.318393
0595,ChIJaXJ2LIWyCVMRxlD1A3MkcSk,53.2755966,-110.0108419
0596,ChIJc-atgnN3cVMRCG_zM6rrrjU,50.9350981,-113.9831606
0597,ChIJ1e7soj1pcVMR1Ah4iYDqvS0,51.1200993,-114.2157299
0598,ChIJTXaquBtwcVMR6e19XFNNHpY,51.03574949999999,-114.0681473
0655,ChIJ64M3_GQhoFMRenHUA-7dmCU,53.5535788,-113.5647807
0658,ChIJVS8srVkfoFMR9OO73wCJNQU,53.4997367,-113.5243141
0660,ChIJWbeYd17Mc1MRbd01IobljbM,51.060371,-113.3958464
0665,ChIJs_K2UF7aCVMRuwXXXHo0sJc,53.58735919999999,-110.522095
0677,ChIJBxYOLLG5CVMRmX9kc9a8pxo,53.3415589,-110.3340414
0681,ChIJM2sxbRMkoFMRmuFeSuUtKIM,53.6022121,-113.5610141
0684,ChIJN7y8OtQYoFMRyGebrPvXo0Y,53.471776,-113.4684695
0688,ChIJOyvLT6gjoFMRTbKHezMSLzc,53.5645829,-113.4889566
0700,ChIJD9WRWtIXoFMRR2IWFTP8gJU,53.5363848,-113.3147212
0747,ChIJLyGGWc6nClMRsltcfhsa2EQ,53.1972868,-113.0564576
0765,ChIJTzAP8qisC1MRvzKSwdw63fo,52.7749904,-111.6920831
0770,ChIJOQ5IiriydVMRtC5v_k59YxY,52.30609279999999,-114.084733
0777,ChIJQWcTacqHblMRYFj4XhLYc5Q,49.6950787,-112.8281404
0793,ChIJL78ihLwacVMRTZmJhtJiUhY,50.95174,-114.5692339
0796,ChIJp8Z-iY9ucVMRVmjMBahbj1Q,51.06804589999999,-114.198097
0850,ChIJxblglfBxcVMRu28w1Sg72M4,51.0120264,-114.1534255
0889,ChIJy-RNOz7zbVMR0idtbnTff_M,50.3500357,-112.6447523
0913,ChIJBycIZA38ElMRJ50dcF0HdbQ,50.3397897,-110.092589
0941,ChIJj2MsoMdlcVMRHpXzd6lEBWA,51.1119139,-114.0641882
0955,ChIJW_rUyQaqElMRS6n648GoC2U,50.746954,-111.184476
0975,ChIJ7QSj8v2QDVMRXFfXLIJ0Iic,51.157764,-110.214152
0992,ChIJyzNDvG9pcVMROYHQUzT5Pbg,51.1239965,-114.2470863
0994,ChIJ9xVj58wmb1MRx9cqKwKZI1o,49.1991402,-113.3263692
0995,ChIJ-dRd2TkioFMR8R3m4xHqDJI,53.53997409999999,-113.5072378
0996,ChIJ-dRd2TkioFMR8R3m4xHqDJI,53.53997409999999,-113.5072378
0999,ChIJ-dRd2TkioFMR8R3m4xHqDJI,53.53997409999999,-113.5072378
1003,ChIJ45eCoFUYoFMRnn3O0Btlrf4,53.4834769,-113.4088047
1004,ChIJd0NzeFgeoFMROmEgy88lem0,53.442603,-113.5255509
1006,ChIJC_w5Fq8ZoFMRHO37B8p9u9g,53.4745785,-113.3922114
1008,ChIJUV_BH-wioFMR0c1fFz5KcS0,53.5475297,-113.4441816
1014,ChIJ65AnZSZxcVMRqs-94cFNX8s,50.9692212,-114.0618269
1015,ChIJtW43ccdtcVMRbOeg3m4_SCM,51.0394473,-114.2238844
1016,ChIJwZD4rTEEdFMRrs3Z2UtC7hc,51.6568097,-114.1367837
1017,ChIJhZgC7aVHnlMRR9tdmCQyA24,53.2217521,-114.9802246
1020,EjEzMjggQ2VudHJlIFN0IFMgIzI3MCwgQ2FsZ2FyeSwgQUIgVDJHIDRYNiwgQ2FuYWRhIh8aHQoWChQKEgnTodDN_m9xUxFBsGR4T4Xr0xIDMjcw,51.0496259,-114.062242
1021,ChIJC4cCyRotE1MRUjFUSSMqOJA,50.017832,-110.6854718
1022,ChIJv9zFZQAhoFMRda1Y--lSBmo,53.5325836,-113.6038241
1024,ChIJtcv-BU07oFMRKy8RdfuholI,53.6215011,-113.4574936
1025,ChIJs7c9qbsZoFMRjtgm3_UAXxo,53.4724634,-113.3773731
1026,ChIJ4WBRirgfoFMR0tLshotfRlA,53.4600054,-113.5770673
1027,Ei45MDA4IDEwNUEgQXZlIE5XLCBFZG1vbnRvbiwgQUIgVDZBIDFDNiwgQ2FuYWRhIjESLwoUChIJf-tHa-oioFMR3fEcH4CC3MEQsEYqFAoSCXuKWhjHIqBTEcXFvHAU0dM0,53.5481116,-113.435278
1028,ChIJI3Gcr2wgoFMRUucikdu4uy8,53.5039846,-113.6296711
1029,ChIJt9uPVqp9cVMRnbFkI0DN3j4,51.0470091,-113.8355826
1030,ChIJq0WyLo1pcVMRkXZ7vB4K_ss,51.151659,-114.279165
1032,ChIJw4oe9fYhoFMRfHRQ9kdJ45Q,53.5181154,-113.5237206
1033,ChIJyWVIgQhKbFMRDmoERfAGtK0,49.79999,-112.13994
1037,ChIJMTvG8JjtCVMRhoxRmy25imI,53.3523495,-110.839494
1038,ChIJVVVVUcJmcVMR9oUo5KxRF1A,51.1655592,-114.0514003
1039,ChIJqfzIsyUhoFMRnaaKriJPphQ,53.561516,-113.6247849
1040,ChIJDw_DHw4EdVMR_PPQQyfAaNQ,52.4692247,-113.7316754
1042,ChIJvTaHbqp9cVMRVEH0ixRq2UE,51.0483538,-113.8357215
1043,ChIJ-dRd2TkioFMR8R3m4xHqDJI,53.53997409999999,-113.5072378
1045,ChIJ95qIPSsFlFMRrhUbcWgaKPE,56.5079229,-119.1341003
1048,ChIJK3e-kPRocVMR5eGbZdW3fSE,51.1461402,-114.1834996
1050,ChIJkcahDAwrg1MRKL-t6IBWoq4,52.8791032,-118.0816929
1051,ChIJJ9lAMMLllVMR5gs6NMN79EA,56.9222159,-117.6300907
1053,ChIJ32Zg1JZlcVMRVn6LwKrz29Q,51.099945,-114.075402
1054,ChIJU-O8Trx6cVMRlOdjZA1sbJw,51.03485999999999,-114.01904
1055,EjYxMDcyMCAxMTcgQXZlICMxMDUsIEdyYW5kZSBQcmFpcmllLCBBQiBUOFYgN043LCBDYW5hZGEiHxodChYKFAoSCaeC1MP9k5BTEUFZYC0fLd1iEgMxMDU,55.1863094,-118.8160885
1058,Eik0OTA1IDUwIFN0LCBJbm5pc2ZhaWwsIEFCIFQ0RyAxVzQsIENhbmFkYSIxEi8KFAoSCVVFtL9gQXRTEZ0UWIeG_BEJEKkmKhQKEgkL98i3YEF0UxF3aW2jM18UkA,52.0270898,-113.9474655
1059,ChIJ-2RAG5jtCVMRGogqVoNilFM,53.3551314,-110.8397258
1060,ChIJZ6A-OBXEcFMRUfjN5K4PqKA,51.0494065,-115.3184752
1062,EjI1MjcxIE1lbW9yaWFsIERyICMyMDksIENhbGdhcnksIEFCIFQyQSA0VjEsIENhbmFkYSIfGh0KFgoUChIJy7qV5Dh7cVMRvUhuTrGpoF0SAzIwOQ,51.052826,-113.956353
1063,ChIJU-dZB0JWdFMRl-0g4s0WBSc,52.2501476,-113.7515769
1064,ChIJc1qeSLlxcVMRv37Jd9q8Usg,51.0066127,-114.1135908
1067,EjE0MTAgMjAgU3QgIzE4MTAsIEZvcnQgTWFjbGVvZCwgQUIgVDBMIDBaMCwgQ2FuYWRhIiAaHgoWChQKEgmDbBg-MFtuUxFgmadsruOZqxIEMTgxMA,49.72222619999999,-113.402431
1075,ChIJI7qPPQv5n1MRytacOXxhzkM,53.2643206,-113.5492538
1076,EjQ3MTQgTWFpbiBTdCAjMTA5MCwgUGluY2hlciBDcmVlaywgQUIgVDBLIDFXMCwgQ2FuYWRhIiAaHgoWChQKEgk5T6m4egpvUxF8z3Jx8TQbcRIEMTA5MA,49.4855107,-113.9489229
1077,ChIJ0S3i6OPMc1MRcK2qI0FPKBs,51.0369482,-113.399452
1096,ChIJl7-UGhMgoFMRY4jJC0s76Bg,53.5002071,-113.6296902
1097,ChIJJwtPDliIblMRi2k_Jzt0MQI,49.6781266,-112.8947354
1098,ChIJOxWv4DhmcVMRbTiheN4U06k,51.1502679,-114.116794
1099,ChIJV9nqO891cVMRdDeBBlIlHYs,50.8974583,-114.0849231
1100,ChIJyWVIgQhKbFMRDmoERfAGtK0,49.79999,-112.13994
1101,ChIJDXZW0C5fkFMRHT9ysNxNPPs,55.2093678,-119.4299018
1102,ChIJDXZW0C5fkFMRHT9ysNxNPPs,55.2093678,-119.4299018
1103,ChIJcaiahb26kFMRmiz0LhXsLio,55.229136,-118.357911
1104,ChIJXR4tUchpkFMRWZqsS8CSrss,55.05,-119.616667
1105,ChIJ22eYb1GRkFMRAmvUsqGFR6Q,55.17875950000001,-118.8068064
1107,ChIJFZ68Z3blkFMRcAe2PaeMLRY,55.404259,-119.152768
1108,ChIJ-aWwvLXBkFMRbGHaC5Vv1AU,55.3451183,-118.7797081
1109,EhtId3kgMiwgU2V4c21pdGgsIEFCLCBDYW5hZGEiLiosChQKEgmPILHbnomdUxHHL8pwa8I-gxIUChIJ-aWwvLXBkFMRbGHaC5Vv1AU,55.3467086,-118.7694154
1111,ChIJ56a6BnSLkFMR01bEUwzs2cU,55.1548689,-119.1412311
1112,ChIJ-aWwvLXBkFMRbGHaC5Vv1AU,55.3451183,-118.7797081
1113,ChIJ56a6BnSLkFMR01bEUwzs2cU,55.1548689,-119.1412311
1114,ChIJyWVIgQhKbFMRDmoERfAGtK0,49.79999,-112.13994
1115,ChIJMZYku0xWkFMRkV5hHcly4N4,55.3268815,-119.5549294
1116,EjE3MjMwNDIgUmFuZ2UgUmQgNzQsIENsYWlybW9udCwgQUIgVDBIIDBXMCwgQ2FuYWRhIjISMAoUChIJZwySv2ntkFMRU6kBwC_P_JcQ4pAsKhQKEglZRPbsC42QUxF3Cwj6D1yflQ,55.2533273,-119.0256914
1117,ChIJu40laWnVc1MRQZ52vSecXwg,50.97605979999999,-113.6807078
1118,ChIJIYwdAMRmcVMR6qPIeiuXXnQ,51.16458309999999,-114.0450259
1119,ChIJLfrOOfRocVMR5fDpGg0a5Zc,51.1463598,-114.1879323
1121,ChIJ8RnmWpEDoVMRHCR0v8ILvRk,54.0931028,-112.786512
1122,ChIJu8tQWJVhclMR-a-CMLb18MQ,50.7903169,-112.4718323
1123,ChIJ4WVWwVtWdFMRwlFd_--AyrY,52.2415908,-113.759529
1124,ChIJyxUtB2ZBdFMRrPzfQrGTwc8,52.0219281,-113.9533497
1125,ChIJjXUmsCFxcVMRB9FRO3yzEEU,50.9753538,-114.0651153
1126,ChIJ3T0kcwdwcVMRKS9bPaQpU2U,51.0394221,-114.049326
1127,ChIJjyCx256JnVMRxy_KcGvCPoM,52.3251528,-113.8609792
1128,ChIJ36tTxqJxcVMR3HuketCU8Ac,50.9990894,-114.1147758
1129,ChIJi7djJE2lbVMR1oXwZ8VtxZ4,50.0681915,-112.1056711
1130,ChIJeXkCEvGNnFMR5OnGrrP5Bfw,53.3889,-117.5924839
1131,EiwzMjE1NiBId3kgNTUyLCBEZSBXaW50b24sIEFCIFQwTCAwWDAsIENhbmFkYSIyEjAKFAoSCbW7gWVrnnFTEXlyTOLWiuhmEJz7ASoUChIJuSmcM2yecVMREoBlf694WUI,50.84761349999999,-114.0445211
1132,ChIJlYwz6XcinFMRvhuRg8PRR9k,53.5917137,-116.4370415
1133,Eio0NTAxIDUyIEF2ZSwgSW5uaXNmYWlsLCBBQiBUNEcgMEI5LCBDYW5hZGEiMRIvChQKEglftc_jZ0F0UxFp1_ncIdGYbBCVIyoUChIJZwLgd25BdFMRAw6ZTj-SQeo,52.0258374,-113.9566554
1134,ChIJBUw7KI9Lv1MRpKvWn35j214,58.38733250000001,-116.0197006
1135,ChIJA1MbEEF5mlMRZ5XSo1QLZOY,55.025143,-118.864914
1136,ChIJpWLVkO4_v1MR9yA37-EXrtM,58.187466,-116.4069991
1137,ChIJ9xLzQLwukVMRIIUlRZCjAAU,55.7772747,-118.8369664
1138,ChIJAQDQOEmRkFMRPpBAIHAykoE,55.1700451,-118.7980246
1140,ChIJ4RLnzFORkFMRYYfQtVAGRZI,55.1788367,-118.8037652
1141,ChIJ173MIVSRkFMR3G7BN7XADJI,55.1820029,-118.8087397
1142,ChIJTXVH8yeRkFMRw_M82qUowxc,55.1461325,-118.7802333
1143,ChIJnTwYTbGWkFMRtWeXnidE9Ck,55.1762559,-118.7784864
1144,ChIJp6--J9yQkFMRglS3q7eaGOQ,55.1384362,-118.7824614
1146,ChIJL17a3zmRkFMR1i84DMGLZIc,55.1611105,-118.795586
1147,ChIJLair4TORkFMR1mKz38JXmMw,55.1613498,-118.783688
1150,ChIJdYqIbaWWkFMRgNzpuhNqYrc,55.1841778,-118.7762628
1152,ChIJzX8QFdyQkFMRgjL4WOuPM0A,55.13800999999999,-118.78116
1153,ChIJFSO0di-RkFMREMiopQyEt5s,55.1532638,-118.7843606
1154,ChIJFSO0di-RkFMREMiopQyEt5s,55.1532638,-118.7843606
1156,Ei0xNTEgQ3JpbXNvbiBEciwgU2hlcndvb2QgUGFyaywgQUIgVDhILCBDYW5hZGEiMRIvChQKEgnVs8ruHRagUxF801IjIkPZ7BCXASoUChIJ1cOa2h4WoFMRoe48BSnFQrg,53.5524241,-113.2751692
1157,ChIJOXJubL_omVMR5vZ-_Dvb6ZE,55.0686345,-117.2808963
1161,ChIJU08_W3FwcVMRqk7OGuekn6U,51.0214005,-114.0401089
1162,ChIJe2uSFeJvcVMR-Y2yEAzuVKw,51.0430526,-114.0753072
1163,ChIJ9bj2Ck8ioFMRM3uR0VkZX0A,53.54661249999999,-113.4890728
1165,ChIJg4MsQG3MdFMR897rCIdv3yc,52.3214921,-112.7128695
1170,ChIJDXZW0C5fkFMRHT9ysNxNPPs,55.2093678,-119.4299018
1171,ChIJ-aWwvLXBkFMRbGHaC5Vv1AU,55.3451183,-118.7797081
1172,ChIJuUWC_buWkFMRR6ub37FCV9E,55.17993629999999,-118.7641886
1173,ChIJccOY4d08oFMRhDYNLC-qdTU,53.5818634,-113.3897614
1174,ChIJz4y0SO0joFMRmfu8xp1cSrA,53.5787878,-113.5373497
1176,ChIJfcFsErKWkFMRS0_w4gEBcwE,55.1792941,-118.7864462
1178,ChIJaVFrahyRkFMR2GLhT_fy94E,55.142633,-118.809438
1180,ChIJKwSVEDGRkFMRPih0WTsGjR0,55.1599859,-118.7867233
1181,ChIJPQjZdBeRkFMRXmrzWi4Wmb4,55.1510554,-118.8112
1189,ChIJy7b5w0M_cVMRFzW9FuIbCJk,51.1951617,-114.5028831
1190,ChIJPwhWtluRkFMRzxk7VJLltyU,55.1756764,-118.8187635
1192,ChIJpcBh7RKRkFMR-JSkmkOj4T0,55.1547285,-118.8283686
1194,ChIJb4xpZk6RkFMRAEvfG4s7IA4,55.1739293,-118.801691
1195,ChIJpWLVkO4_v1MR9yA37-EXrtM,58.187466,-116.4069991
1196,ChIJMZYku0xWkFMRkV5hHcly4N4,55.3268815,-119.5549294
1197,ChIJV-g-HY78k1MRPBlgMSBSGwg,56.35309179999999,-119.4764329
1198,ChIJv9HlhjVMo1MRnO5_hVvYTBc,56.0144698,-113.8215527
1199,ChIJpWLVkO4_v1MR9yA37-EXrtM,58.187466,-116.4069991
1202,ChIJ0cIUYAdlmVMRm7AkRyZwXQc,54.4009429,-116.8044668
1203,ChIJK129URFVl1MR5UN5W3FGvY8,55.166667,-117.866667
1206,ChIJOXJubL_omVMR5vZ-_Dvb6ZE,55.0686345,-117.2808963
1207,ChIJOXJubL_omVMR5vZ-_Dvb6ZE,55.0686345,-117.2808963
1208,ChIJOXJubL_omVMR5vZ-_Dvb6ZE,55.0686345,-117.2808963
1209,ChIJK129URFVl1MR5UN5W3FGvY8,55.166667,-117.866667
1210,ChIJjyCx256JnVMRxy_KcGvCPoM,52.3251528,-113.8609792
1211,ChIJjyCx256JnVMRxy_KcGvCPoM,52.3251528,-113.8609792
1216,ChIJt58PmVpwcVMRfUjkAMVhWc0,51.0077214,-114.0712261
1218,ChIJzwTV8U1wcVMRSpvbj2MCgos,51.0075757,-114.0818118
1219,ChIJf-XGhFMioFMRWU7RpGZb-wQ,53.5529301,-113.4853719
1220,ChIJgVayLRKGblMRbJGSLqMFdrw,49.6658667,-112.8094476
1221,ChIJnREYxh0WoFMRWcqcP2Z_kOA,53.552017,-113.2741641
1222,ChIJvyyRgx5HdVMRRHL3Q4Et6y4,52.834432,-113.447207
1223,ChIJH4lI5lcloFMRwus-_GPjwyU,53.5912382,-113.5686257
1224,ChIJ5SOWD3t2cVMRrfRHTt3Fs6I,50.90643,-114.05375
1225,ChIJhWAlpqVAcVMRlk5avk1Fgy0,51.2067838,-114.4748594
1226,ChIJc5fYIqBjcVMRLkc7zdRsYBc,51.117118,-113.938786
1229,ChIJtwj5nG8tE1MRjtBMJmHoriE,49.99825999999999,-110.67288
1231,ChIJ0zCZpejMc1MRnShMoFSXPaI,51.0387259,-113.390627
1232,ChIJU08_W3FwcVMRqk7OGuekn6U,51.0214005,-114.0401089
1233,ChIJg0OtDrYXoFMR7jUTtLOv6JM,53.5233044,-113.3070475
1234,ChIJg0OtDrYXoFMR7jUTtLOv6JM,53.5233044,-113.3070475
1237,ChIJ-6woXmwsE1MRL0PZ1t5r0Hw,50.0576024,-110.6704459
1239,ChIJz7jIOlssE1MRHARgM82ZmWM,50.043155,-110.6729092
1241,ChIJiceou76WkFMRQZXvn58vUVE,55.1796221,-118.7611989
1242,ChIJ1cjV3yFQoVMRkXOE030TFng,54.634545,-112.51363
1245,ChIJNSbmSoApl1MR48CQNguX6-U,55.736396,-118.388515
1246,ChIJLT8kO01ocVMRvtcjk4VRhlI,51.1594913,-114.2264654
1247,ChIJo1OUNgBjbVMRJq0UeZ3Nmow,50.5690886,-111.9071551
1249,EjQyMTA3IFNpcm9jY28gRHIgU1cgIzEwMCwgQ2FsZ2FyeSwgQUIgVDNIIDVQMSwgQ2FuYWRhIh8aHQoWChQKEgkJtit7D25xUxGu_zY7GnH2sBIDMTAw,51.032228,-114.1709839
1251,ChIJt58PmVpwcVMRfUjkAMVhWc0,51.0077214,-114.0712261
1253,ChIJEaGe8n1WdFMRR3Lr0P6znpc,52.2589905,-113.7850191
1254,ChIJfeTFayc9oFMRtvlrYw5mpPU,53.5742184,-113.3930938
1255,ChIJp5azSfUgoFMRixYS74EkALQ,53.5256975,-113.6383685
1256,ChIJlQo8UXkGsFMRY0iZfWiEOQo,56.67402999999999,-111.340149
1258,EjE2MjggNTUgQXZlIFcgIzIxOSwgQ2xhcmVzaG9sbSwgQUIgVDBMIDBUMCwgQ2FuYWRhIh8aHQoWChQKEgnlNTjHlTtuUxHZ2gNXrTuWsBIDMjE5,50.0316123,-113.5924156
1260,ChIJU08_W3FwcVMRqk7OGuekn6U,51.0214005,-114.0401089
1264,ChIJQ-YAfs56cVMRODIAO2t7KlQ,51.0503223,-114.0081036
1265,ChIJsZ4pXTCYcVMR40Mo2P5GTN0,50.721011,-113.9852512
1266,ChIJR630inMinFMR78YO5KBPLZ8,53.5897498,-116.4246193
1267,ChIJD8LpXtqOn1MR-4lRybTQeSw,53.556964,-113.8795612
1268,ChIJFbGopm_xn1MR23QvuRZIuZg,53.3554003,-113.7244173
1269,ChIJ_SVbPYxfcVMRO30_ACx-ArE,51.2666745,-113.9800709
1270,EjA0MzAxIDUxIEF2ZSAjODQwLCBWYWxsZXl2aWV3LCBBQiBUMEggM04wLCBDYW5hZGEiHxodChYKFAoSCY8iXy6-6JlTEWcYKsXMRTPOEgM4NDA,55.0716134,-117.2653841
1271,ChIJ_f-PaMVxcVMRS-61X4x9HJI,51.0193065,-114.119017
1272,ChIJsUBhls3edVMRpr10Fu9a_Iw,52.38283269999999,-114.9193188
1275,ChIJR4-ih-1mcVMRbvIfl77YxTc,51.1573568,-114.0659616
1278,ChIJtQjTTNp6cVMRnZLvonf40_Q,51.04559,-113.99327
1279,ChIJwUtkwH7ln1MRHsiJlQniDcU,53.2650494,-113.8055076
1280,ChIJ_3AmsxUZoFMROSdT0zSv0-o,53.4586526,-113.4225101
1281,ChIJ1V0yCyqYcVMRPBXbRWwfEgo,50.7116657,-113.9681621
1282,ChIJ2dy2C1w7oFMR5TTN2H33nB8,53.620134,-113.431634
1283,ChIJUdmI22UhoFMRUpn4EA5ciJI,53.5555287,-113.56905
1284,ChIJ1Qd_MAh9cVMRNi13OZ2DIWU,51.0525415,-113.8245685
1294,ChIJOXJubL_omVMR5vZ-_Dvb6ZE,55.0686345,-117.2808963
1297,ChIJxyBSIuaZcVMRvyqsfIlybZg,50.7291779,-113.9358019
1300,ChIJLx0HTjdOdVMRbHmN20uAdNk,52.9678221,-113.3778805
1302,ChIJv-CQJhVukVMRUQvp7My2n4c,55.91257,-119.827345
1303,ChIJGQfchL8Yl1MRo43FZOZeYZw,55.782235,-117.88065
1304,ChIJVRJD6agrkVMRKab6A9abeMc,55.7559874,-118.7114798
1305,ChIJNc7Qo5pFkVMRpLhVMGi55aE,56.042866,-119.566457
1306,ChIJ9xLzQLwukVMRIIUlRZCjAAU,55.7772747,-118.8369664
1311,ChIJNSbmSoApl1MR48CQNguX6-U,55.736396,-118.388515
1312,ChIJkeEI1xEEdVMRk98-D50jui8,52.4689929,-113.7329747
1316,ChIJg6Y9N753cVMRKeMHmfClCEc,50.91317009999999,-113.969597
1317,ChIJ_zUbVeyP6lMR0RWV6AZsoKM,58.49985599999999,-119.3995477
1322,ChIJP8DNHJXFcFMRmWnQ-bvtEvA,51.0899824,-115.3532187
1323,ChIJ5Uvf0it7cVMREjPFVre443E,51.0559048,-113.9864072
1325,ChIJiZNi1a3kblMRovYj6bk_WvU,49.46799799999999,-113.30541
1326,ChIJiZNi1a3kblMRovYj6bk_WvU,49.46799799999999,-113.30541
1328,Ei01NzQ5IDQ1IEF2ZSwgUm9ja3kgUmFwaWRzLCBBQiBUMEUgMVowLCBDYW5hZGEiMRIvChQKEglTml-7CUeeUxEmEVBNCKIjnRD1LCoUChIJdd0G6KNHnlMRIWzwjTH1q50,53.2169557,-114.9912336
1330,ChIJ5ZVc2gJpcVMRRDR7rCm-c-w,51.13471269999999,-114.2093894
1331,ChIJfebtEgh2cVMRFf694H6Hbx0,50.8832952,-114.0452882
1332,ChIJQS-ROIxocVMRISNiUfEI6Ww,51.1457,-114.1733
1333,ChIJ_eoMfaF3cVMR4I2nRYh8lrQ,50.9236099,-113.982522
1334,ChIJN2_9MNp6cVMRRyzuXVx64sY,51.046265,-113.9925115
1335,ChIJVXwAl2dpcVMRmRszrhtWdaM,51.1162393,-114.2456889
1336,ChIJXQSxspF3cVMR6ikbclB-lW0,50.920187,-113.959611
1337,ChIJ_3R2hmZpcVMRryDEGD5CUEM,51.1190591,-114.2502545
1338,ChIJP5qasSpscVMRDUh0_NF1Tq0,51.0571253,-114.2075984
1339,ChIJkYYUuhp2cVMR0bq8xI7ty2k,50.8850303,-114.0291081
1340,ChIJOV4vhvZmcVMRAQ1j1J0Hdho,51.1578435,-114.079083
1342,ChIJ9zLy8QZfcVMRG3D9CD-lqiA,51.2757188,-114.0358893
1343,ChIJ9UEXKeIgoFMRQ5HRV66cvFo,53.5445597,-113.6224554
1344,ChIJs3w9OcYfoFMRu1R6MJ-Nstg,53.457006,-113.582757
1348,ChIJwSV33tZwcVMRjCY_bhH59IE,50.9672418,-114.0453696
1349,ChIJgQokBC9lcVMRT9D1pTJ7-Sg,51.06417949999999,-114.011365
1350,ChIJ_wphLJtlcVMRil2Ct7aQKYM,51.0931663,-114.0780715
1351,ChIJhZ613N5wcVMRThq65-kSWkA,50.97531499999999,-114.054281
1352,ChIJ4dDlx0lxcVMRSWo2CG3YDJ0,50.9589525,-114.0825222
1354,ChIJ0c_t_wwJsFMRpSWg0udW1rE,56.7594469,-111.4690419
1356,ChIJebns6lkWv1MRYI1tc_U1jgg,58.065566,-116.349803
1357,ChIJf-XGhFMioFMRWU7RpGZb-wQ,53.5529301,-113.4853719
1360,ChIJ0S3i6OPMc1MRcK2qI0FPKBs,51.0369482,-113.399452
1361,ChIJk8rH791WnFMRH2MsncPm1EY,53.23357799999999,-116.9744825
1362,ChIJndxNpsoXoFMR4NIvJJbV51U,53.5255388,-113.3007542
1363,EkQ4NjI3IFJ1ZSBNYXJpZS1Bbm5lIEdhYm91cnkgQnVyZWF1IDMxMiwgRWRtb250b24sIEFCIFQ2QyAzTjEsIENhbmFkYSImGiQKFgoUChIJLcrNhXAioFMRykJTXWRQprwSCkJ1cmVhdSAzMTI,53.5224906,-113.4663768
1364,ChIJ8UO16BtvcVMRM39je4XI1nE,51.0855367,-114.1499559
1365,ChIJ4VzJ5oJjcVMR2r5M7z78EL4,51.1138276,-113.9575501
1367,ChIJmZ8GbPoXoFMRzdqnbVv5DlA,53.508988,-113.2725925
1368,ChIJ7R-wk3ZucVMRy7sXTrzbcHs,51.0454038,-114.1893762
1369,ChIJEXNhn7eydVMRByJvuvbd5iA,52.30286,-114.07945
1370,ChIJ9xLzQLwukVMRIIUlRZCjAAU,55.7772747,-118.8369664
1371,Ei0xNzYxMCAxMDQgU3QgTlcsIEVkbW9udG9uLCBBQiBUNVggNVk1LCBDYW5hZGEiMhIwChQKEgkLTz-v2SSgUxH_2FRxt0eImhDKiQEqFAoSCe_kKaDcJKBTEZQ3s53iZ706,53.6411659,-113.5034657
1372,ChIJOSstlRmRkFMRkMhf-FsT6p4,55.1483496,-118.810733
1373,ChIJF_vkckh8cVMRvhF0SIAAmiI,51.0278701,-113.840187
1375,Ei8yMiBFbGl6YWJldGggU3QgIzEsIE9rb3Rva3MsIEFCIFQxUyAyQzEsIENhbmFkYSIdGhsKFgoUChIJW7mDXDOYcVMRquXlrMtukOwSATE,50.7258609,-113.9763222
1376,ChIJF7Jj6IdFllMRL_LqaYk5Ngc,56.2393886,-117.2968366
1377,ChIJyWVIgQhKbFMRDmoERfAGtK0,49.79999,-112.13994
1378,ChIJt4mKENd2cVMRsRW41WupN7U,50.9508901,-114.0435061
1379,ChIJrxoOJMYnmFMRJM5piBo_jfY,55.4328449,-116.488581
1380,ChIJt8yWXsCHblMRjLDVBTUnQjg,49.7081071,-112.8401155
1381,ChIJa5Z1GDlpp1MRtJLsPjGqYPk,53.901093,-110.896432
1383,ChIJtQIMPc5icVMR8Kd1K8iDOBs,51.0941155,-113.8640327
1384,ChIJNV4fdzEZdVMRPrkv7fFYdJU,52.5216156,-113.46026
1385,ChIJt58PmVpwcVMRfUjkAMVhWc0,51.0077214,-114.0712261
1386,ChIJg1G7o8xocVMRxj03w2vVo4g,51.11286,-114.1596723
1387,EjoyMjUgNTE1NTkgUmFuZ2UgUmQgMjI1ICMzNDksIFNoZXJ3b29kIFBhcmssIEFCIFQ4QywgQ2FuYWRhIjoaOAoxEi8KFAoSCdeg1mYYEaBTEXiuHDYXCQRLEOEBKhQKEglX7dusGRGgUxGCaf5OlV3WsBIDMzQ5,53.4521025,-113.2114283
1389,ChIJ0cIUYAdlmVMRm7AkRyZwXQc,54.4009429,-116.8044668
1392,ChIJ9xLzQLwukVMRIIUlRZCjAAU,55.7772747,-118.8369664
1397,EjQ1MzA1IE1jQ2FsbCBXYXkgTkUgIzEzNywgQ2FsZ2FyeSwgQUIgVDJFIDlCNSwgQ2FuYWRhIh8aHQoWChQKEgkncix89mRxUxFyhESWbBS2HhIDMTM3,51.10110719999999,-114.002235
1400,ChIJLRuPFbOHblMRdCD2BApZgQ8,49.695413,-112.8158343
1402,ChIJGdTAp2LBllMRTVNhRVI_zEs,56.06959070000001,-118.3922766
1404,ChIJGdTAp2LBllMRTVNhRVI_zEs,56.06959070000001,-118.3922766
1405,ChIJq-CVFUO8llMR5jxQWO-G4tE,56.24715440000001,-118.6062648
1407,ChIJ95qIPSsFlFMRrhUbcWgaKPE,56.5079229,-119.1341003
1410,ChIJH0aBctRDclMRAACwmc56dUo,51.0629907,-114.1236249
1411,Ei4xNzgwMDMgMTEyIFN0IFcsIERlIFdpbnRvbiwgQUIgVDBMIDBYMCwgQ2FuYWRhIjISMAoUChIJTwqi-KkKcVMRR68CyO7dHggQ0-4KKhQKEgmnr2JiBaBxUxHMr1ahCk32Ow,50.844921,-114.163434
1413,ChIJN0TKLkl8cVMRU-X_jaoTN8k,51.031268,-113.8396546
1415,ChIJzVj8iXt2cVMRkkrRW0yB3mw,50.9073979,-114.0568314
1419,ChIJHzwQNWuHblMRYrRD7nAByEo,49.7227633,-112.7902369
1421,ChIJ2UsjVV3KDFMRr3C2AYMl_JQ,51.6442555,-111.9258289
1422,ChIJyWVIgQhKbFMRDmoERfAGtK0,49.79999,-112.13994
1423,ChIJxcC5H-1yblMR2YKfxIvIPVY,49.9962136,-113.0821011
1424,ChIJjZSu1RmVkFMRdKEolXwpoUk,55.26213629999999,-118.7839783
1425,ChIJN98pAqDoclMRxSAQEieakfs,50.7333791,-112.7767825
1426,ChIJG5IsFqJlcVMRwTreoLdt2VI,51.09566419999999,-114.0602834
1427,ChIJS95-fJSKn1MRZJ1IddOLFkc,53.49105849999999,-113.6829615
1428,ChIJTS5la8sfoFMRNUatAFI_O0M,53.4476628,-113.575048
1429,ChIJedyesnAeoFMRmUB6FRuioRs,53.4167967,-113.5225222
1430,ChIJVVVVEccfoFMRaUTOtJF1rfI,53.4599053,-113.581942
1431,EisxMzA4IDJhIFN0IFcgIzksIEJyb29rcywgQUIgVDFSIDBWNSwgQ2FuYWRhIh0aGwoWChQKEgmFf1xyRWJtUxFCJihy8K3deBIBOQ,50.58443,-111.89668
1432,ChIJt58PmVpwcVMRfUjkAMVhWc0,51.0077214,-114.0712261
1433,ChIJH6yBRePMc1MRB05G3Iw7vXk,51.0415767,-113.4039789
1434,ChIJb9288vNzcVMRTnN3YPnprWI,50.9464695,-114.1334228
1435,ChIJA9Lc23pfcVMRY5_f7LMunTI,51.2892058,-114.0034153
1437,ChIJAXUKvxZfcVMRAr-1cZs3mwo,51.2897209,-114.0366795
1439,ChIJVdO4G-n7kFMRXEbTOsOxcWk,55.403945,-119.383406
1440,ChIJ1Q3__YJkcVMRWqZ2OhzrW7w,51.1011314,-113.9653373
1443,ChIJ8UqWS6M0oVMR1lDIzF1S9h4,54.44203,-112.097578
1444,ChIJqzO6-O6On1MRp0cK_1JoGlw,53.54630170000001,-113.8999335
1445,EjE0MTAgMjAgU3QgIzE4MTAsIEZvcnQgTWFjbGVvZCwgQUIgVDBMIDBaMCwgQ2FuYWRhIiAaHgoWChQKEgmDbBg-MFtuUxFgmadsruOZqxIEMTgxMA,49.72222619999999,-113.402431
1446,EjI0MDAgUHJpbmNlIG9mIFBlYWNlIFd5LCBSb2NreSBWaWV3LCBBQiBUMVgsIENhbmFkYSIxEi8KFAoSCcVp8YHAfHFTEQUFxxfNRXrFEJADKhQKEgmloqikv3xxUxHzyWap9RaD4w,51.062044,-113.8917017
1447,ChIJW07Tf8PMClMRzT9FRz_48nI,52.7656368,-112.9712831
1448,ChIJgZ1SdvV4blMRQQtIRQDhUUQ,49.876893,-112.7797713
1450,ChIJR09KYKFjcVMR89t9J4q0mMs,51.121274,-113.937597
1451,ChIJe9sigC10cVMRDYL9LlTfxqA,50.90891999999999,-114.08789
1452,ChIJiz45Kl9mcVMRWz2JR-mauXs,51.1552954,-114.0859283
1453,ChIJLWnpGceydVMRu0wltlHSmYI,52.3059146,-114.0900431
1454,ChIJwQAw1dSQkFMRXCtt6nmgCy8,55.1479724,-118.7586402
1455,ChIJnfmlE3IeoFMRpNbXTVewAiQ,53.4192461,-113.5347247
1456,ChIJd34nBGc7oFMRt4FpUzIxAOU,53.62338279999999,-113.4216772
1457,ChIJXyaDdcokoFMRoc_RLCnb8cU,53.627013,-113.4744423
1458,ChIJv-aOh78ZoFMRBiXH9i8zNxY,53.46959589999999,-113.3618496
1459,ChIJGz5FeUUkoFMRmmDzrwxH9ek,53.6207832,-113.559616
1460,ChIJ0R4nS8sfoFMR0fsjGrdoCCQ,53.4462591,-113.5740625
1461,ChIJuSp7byCUkFMRKE2KRW5_buA,55.197495,-118.769188
1462,ChIJa-o44IBfcVMRo2SbtQcbKdc,51.2792946,-113.9843022
1463,ChIJmaq2gZx3cVMRpV4UwxBlNmg,50.92702860000001,-113.9668334
1464,ChIJQe8z224AdVMRRRjJIXEAbok,52.381198,-113.7953731
1465,ChIJe4L2DgCJblMRMyTvbvZrjQ8,49.6737943,-112.9110564
1466,ChIJ4UGOoqAYoFMRZKMutyd7RKA,53.51042409999999,-113.4815716
1467,ChIJsRWlKvcloFMRvooCUV86RIA,53.6593155,-113.6242104
1468,ChIJGQfchL8Yl1MRo43FZOZeYZw,55.782235,-117.88065
1469,ChIJ9cll0lL_c1MRhGpLU3Wsbok,51.5620065,-114.0968124
1470,ChIJGdTAp2LBllMRTVNhRVI_zEs,56.06959070000001,-118.3922766
1471,ChIJAeLjRT2VcVMRhTU8ugoFVIQ,50.5799201,-113.8612342
1472,ChIJgZ1SdvV4blMRQQtIRQDhUUQ,49.876893,-112.7797713
1473,ChIJqarmtKlXbFMRJZMwnXb3yzg,49.82570699999999,-111.698
1474,ChIJV1fAc_HYdFMRqgb0vpCRm5A,52.4646955,-113.1116803
1476,ChIJbbEF6oBlcVMRiDd6D62E93I,51.0871737,-114.0880646
1478,ChIJvX-aklZucVMR3wqF5gHN7fg,51.06529,-114.1530941
1479,ChIJl8mTxkVMc0ERHlwUup1I3kc,49.79999,-112.13994
1482,ChIJUXKn28yZcVMR27g1AzOd56s,50.7251246,-113.9720028
1484,ChIJwbT_C9V3cVMRq2LwGSuLeto,50.887927,-113.9763274
1485,ChIJAWtCdER0cVMRSx73vqeFT-Q,50.9144639,-114.1223935
1486,ChIJVRl5hbtjcVMRDR1JPJyY3Tg,51.1296407,-113.9412369
1489,ChIJz7jIOlssE1MRHARgM82ZmWM,50.043155,-110.6729092
1492,ChIJz0Ajl0eDwFMR_Y-E2Q4dqMo,58.50585400000001,-117.1277033
1495,ChIJsxZOnVKDwFMRCY5i1VUSNdo,58.50706229999999,-117.140307
1496,ChIJ1Q8avMIcoFMR-wVlGbl0Sy8,53.3607089,-113.4304495
1497,ChIJpwJyBFgQdFMRIdN5z8nSsmU,51.79161029999999,-114.1073735
1498,ChIJL3HCv0x0cVMRB1rzzGkHf6U,50.9023877,-114.1105144
1499,ChIJVTbwLCp2cVMRdZ5GMfNNglo,50.8868222,-113.987392
1500,ChIJ9znbFDl0cVMR4BE-LcUJau0,50.9169448,-114.1063377
1501,ChIJxzFvWZr3llMRwPXgQhee5LM,56.1463103,-117.7363156
1504,ChIJR6P7NihwllMRRs8viJ7g4jI,56.537736,-117.671415
1505,ChIJRW42YLRZllMRTSfoxK90E0E,56.1893408,-117.6104879
1507,ChIJJ9lAMMLllVMR5gs6NMN79EA,56.9222159,-117.6300907
1508,ChIJJ9lAMMLllVMR5gs6NMN79EA,56.9222159,-117.6300907
1510,ChIJK46eWvWyl1MRtD3zU3m1CB8,56.0373354,-117.1330425
1511,ChIJf4vevolFllMRAWpR0OVGeZg,56.241403,-117.290019
1512,ChIJt-52BY9FllMRlVTBA3sc4XI,56.24611669999999,-117.298914
1514,ChIJyXQ61ZJFllMRmLAx40RRQiA,56.2545259,-117.290651
1517,ChIJKy4tRHtPllMRTPOXL-efrTM,56.2323403,-117.2898995
1519,ChIJQU2tm1RocVMR6UIhcsaShPQ,51.1454232,-114.2219594
1520,ChIJU9kax7djcVMRbJc-RaHtUrI,51.1369649,-113.9370987
1521,EjI4OTk5IFdlbnR3b3J0aCBBdmUgU1csIENhbGdhcnksIEFCIFQzSCAwQTksIENhbmFkYSIxEi8KFAoSCTnspAwsbHFTEZhgSLa44b1iEKdGKhQKEgm1gyH1K2xxUxEUOGPAU5HA2A,51.0584652,-114.216849
1522,ChIJj_YJdpY8oFMRUSgx33VPNb0,53.6021888,-113.4031553
1524,ChIJc1fzcqwKmFMRhnUw8AuoVhs,55.33158299999999,-115.4331334
1525,ChIJp7xcAqd6cVMRo4JMDybTaA4,51.0351952,-114.0389817
1526,ChIJtchmxySKdVMRjcc1KHbQn9A,52.9526231,-114.7954031
1527,ChIJz7jIOlssE1MRHARgM82ZmWM,50.043155,-110.6729092
1528,ChIJTUzdEGeGblMRIdT6RftfoKU,49.6769061,-112.7880195
1529,ChIJ5c4K02toC1MR4hfneoMXLtw,52.2191785,-111.9055709
1535,ChIJzVj8iXt2cVMRkkrRW0yB3mw,50.9073979,-114.0568314
1538,ChIJAyAejbYOblMRsy1CCU-wN_I,50.1268818,-113.112644
1541,ChIJHzwQNWuHblMRYrRD7nAByEo,49.7227633,-112.7902369
1542,ChIJGdTAp2LBllMRTVNhRVI_zEs,56.06959070000001,-118.3922766
1543,ChIJ48NEn9NNo1MRj3nHBAhiPcw,55.9603538,-113.8264007
1544,ChIJQQWB5AT7r1MRU0S6bzsElLI,56.4478607,-111.0461641
1545,ChIJGcvI6bPLp1MR35vT1LFGaQg,54.4406776,-110.1876973
1546,ChIJ64KAJQ7Xo1MRAh_ZSAYhR1s,54.716549,-113.2824395
1547,EiA1MSBTdCwgVmlsbmEsIEFCIFQwQSAzTDAsIENhbmFkYSIuKiwKFAoSCfN5VbYZ1KBTEfOngLkCltb-EhQKEgnfor_ZLNGgUxHyPpaWzU2e7A,54.117052,-111.924174
1550,ChIJsWXdPFygl1MRy0-Il7JL0PI,55.737768,-117.2018651
1551,ChIJF1-3YA2dn1MRLam5o-f44Qk,53.7065765,-114.1882038
1552,ChIJay6shVvTnlMRDNZEAlaVcHI,54.127181,-115.669555
1553,ChIJB48uCm93oFMR9h3ajAN1vbo,53.3675436,-112.6585353
1554,ChIJU6F5gth6cVMRTHWY-OMRb3U,51.0473242,-113.9832921
1557,ChIJJzHwyNwjoFMRpopHkA5fh74,53.563305,-113.542019
1558,ChIJveh4HfZwcVMR_WO27C4h9N4,51.00101799999999,-114.0579766
1559,ChIJ4dkdbxQJsFMRwM_y5y6WcB8,56.76114579999999,-111.4536565
1562,ChIJz5I1csZxcVMRL6oSa9b2Vq8,51.0153078,-114.1165393
1563,ChIJJXcdos-7ClMRFKORilyWC0s,53.0199237,-112.8339947
1564,ChIJb6KCzBMJsFMRGKar2DRafPY,56.7591948,-111.4581751
1568,ChIJ8_ov6auFp1MRmS_hTOuQ4uM,53.89964519999999,-110.2162899
1570,ChIJRW42YLRZllMRTSfoxK90E0E,56.1893408,-117.6104879
1572,ChIJ_c9atOtFllMRPMomfNCKANU,56.2611971,-117.2889861
1573,ChIJ9cgcII9FllMRJ9iLxliXQ44,56.245285,-117.2970501
1574,ChIJJ9lAMMLllVMR5gs6NMN79EA,56.9222159,-117.6300907
1576,ChIJZygIw1ghoFMRnHPGyrrKdgM,53.568846,-113.568273
1577,ChIJVQAUabmKn1MR15HaVeNbo-8,53.4872003,-113.6717118
1578,ChIJJXRFCBgcoFMRPlq_FSaT-Q4,53.4134049,-113.4610343
1579,ChIJI3Lrjd1xcVMR1e9LhVnrij0,51.021168,-114.1363873
1580,ChIJIwtCdLNvcVMRiblS7tQo-EE,51.05821520000001,-114.1316003
1581,ChIJJXcdos-7ClMRFKORilyWC0s,53.0199237,-112.8339947
1582,ChIJ__ItAXotoFMRLXJxv2PnTrI,53.804181,-113.647163
1584,ChIJfQm4D0M_cVMRBDuMMn0kLXw,51.1957444,-114.4994839
1585,ChIJQwocXqCSolMRT3wfDjEdYdE,55.278282,-114.7837317
1586,ChIJVVXFGWNlcVMRicRJmChZALw,51.073683,-114.0729423
1587,ChIJh_mfuUNfcVMRS4j0Kgq0IB8,51.3004895,-114.023795
1588,ChIJsZ4pXTCYcVMR40Mo2P5GTN0,50.721011,-113.9852512
1591,ChIJt58PmVpwcVMRfUjkAMVhWc0,51.0077214,-114.0712261
1592,ChIJhaAHfdoXoFMRJRtxcTXnKw0,53.5347051,-113.3272657
1595,ChIJwWmIjnl2cVMRM7gH9FqMDlo,50.9033282,-114.0572373
1596,EjA0MzA3IDEzMCBBdmUgU0UgIzQ2LCBDYWxnYXJ5LCBBQiBUMlogNFk1LCBDYW5hZGEiHhocChYKFAoSCf9muWKdd3FTEcuXGiIQAy8BEgI0Ng,50.9301318,-113.9716621
1597,ChIJAQBAIJVfcVMR7dbihGa2P1Y,51.260127,-113.9942357
1598,EjQ5MDYgMTIgQXZlIFNXIDJuZCBGbG9vciwgQ2FsZ2FyeSwgQUIgVDJSIDFLNywgQ2FuYWRhIiUaIwoWChQKEgmbqjtc4G9xUxEDYlcNV6VuThIJMm5kIEZsb29y,51.0422545,-114.0827217
1599,ChIJQY-Cq1cWoFMRSElEcIJNJ3A,53.5113784,-113.2720615
1600,ChIJW6ZL1JEioFMRkUdqim8iA2Q,53.534562,-113.4391178
1602,EjU1NTA0IENlbnRlbm5pYWwgQXZlICM2MCwgRG9ubmVsbHksIEFCIFQwSCAxRzAsIENhbmFkYSIeGhwKFgoUChIJmUzAzDegl1MR8ckiJGG39EsSAjYw,55.7270629,-117.1098969
1603,ChIJEa_QCBlrmFMRaSxcfd_eAhY,55.3532899,-115.7922158
1606,ChIJrxoOJMYnmFMRJM5piBo_jfY,55.4328449,-116.488581
1607,ChIJrxoOJMYnmFMRJM5piBo_jfY,55.4328449,-116.488581
1608,ChIJrxoOJMYnmFMRJM5piBo_jfY,55.4328449,-116.488581
1610,ChIJn3_rM6UQmFMRFxq_0S_YvsY,55.397153,-115.952693
1611,ChIJc1fzcqwKmFMRhnUw8AuoVhs,55.33158299999999,-115.4331334
1614,ChIJj088NZySolMR-xCoXfjjXgw,55.2853326,-114.7740219
1615,ChIJoxDnqZ-SolMRAktnmnlCrOc,55.2870619,-114.7680253
1616,ChIJV4mPOWGNolMRvzL5nDLLi3Q,55.27990140000001,-114.7632328
1619,ChIJrxoOJMYnmFMRJM5piBo_jfY,55.4328449,-116.488581
1621,ChIJk5SBZkwZoFMRl1M_j72qEts,53.4432839,-113.445267
1623,ChIJbbEF6oBlcVMRiDd6D62E93I,51.0871737,-114.0880646
1625,EhZId3kgMiwgQWxiZXJ0YSwgQ2FuYWRhIi4qLAoUChIJjyCx256JnVMRxy_KcGvCPoMSFAoSCb8skYMeR3VTEURy90OBLesu,52.3251528,-113.8609792
1626,ChIJZa1MUFoioFMRVL6nJv_0qSQ,53.5438216,-113.4803025
1628,ChIJJXcdos-7ClMRFKORilyWC0s,53.0199237,-112.8339947
1629,ChIJvyyRgx5HdVMRRHL3Q4Et6y4,52.834432,-113.447207
1630,ChIJ68V1tImXcVMRUhfixbxR92A,50.70720360000001,-113.9799376
1631,ChIJiZwbO9YgoFMRoz7yhURTADY,53.5628813,-113.6366934
1632,ChIJv-CQJhVukVMRUQvp7My2n4c,55.91257,-119.827345
1633,EiQ1ODE2IEh3eSAyQSwgTGFjb21iZSwgQUIgVDRMLCBDYW5hZGEiMRIvChQKEglLEdDQbQR1UxEMxSZKIMP8FxC4LSoUChIJiZCcgAAEdVMRmnYUAXJEnYQ,52.4748574,-113.7164707
1634,ChIJ13r3mCP2uFMRsBdIc3kzvfE,58.42842100000001,-114.5239345
1635,ChIJsWXdPFygl1MRy0-Il7JL0PI,55.737768,-117.2018651
1648,ChIJSQdMdfssE1MRge4o3yMqppQ,50.0328704,-110.6915176
1670,ChIJrxoOJMYnmFMRJM5piBo_jfY,55.4328449,-116.488581
1671,ChIJ74OxuVWYl1MRs1Rtl1itmoM,55.7115504,-116.9043009
1673,ChIJI4DKyEHVc1MRqnjk1i3pgM4,50.9727074,-113.6731285
1674,ChIJ42rQ0-dmcVMRLoXim4ICIgw,51.16722,-114.0608764
1675,ChIJwQlg-3yNolMRpoJVe83oLuQ,55.2782218,-114.7786825
1676,ChIJp-HQ21dmcVMR-rPUAuV8Ehk,51.1625322,-114.0887104
1677,ChIJM6CH3AljcVMR3iAiv4kzSY4,51.1172206,-113.9283496
1678,ChIJ_Rdp5G5pcVMRaU7IJhCXGhE,51.1228715,-114.2435308
1679,ChIJI6TXQ-FocVMR4AewymlD3YE,51.13074040000001,-114.1951065
1680,ChIJQ0qVlfZ3cVMR2hJT8gY5OD4,50.910123,-113.9352179
1681,ChIJjaycrUdfcVMRwH2kpww5tXc,51.3036336,-114.0341604
1682,Ei8xMDA1NSAxMDYgU3QgIzMwMCwgRWRtb250b24sIEFCIFQ1SiAyWTIsIENhbmFkYSIfGh0KFgoUChIJFefkGjgioFMR4je2jTHsXGwSAzMwMA,53.5405513,-113.5025236
1684,ChIJFZ4pCq6Pn1MRGXMjik7V89U,53.55654819999999,-113.9504432
1685,ChIJj806WwZxcVMRtMKHRQF3TSM,50.99074659999999,-114.0882983
1686,ChIJj806WwZxcVMRtMKHRQF3TSM,50.99074659999999,-114.0882983
1688,ChIJtWKC2eR6cVMRCW_FFu7t3Fw,51.0298951,-113.9799412
1689,Ei41MjA0IDUwIEF2ZSAjMTAyLCBCZWF1bW9udCwgQUIgVDRYIDFFMywgQ2FuYWRhIh8aHQoWChQKEgklWPKIxRygUxFICTm4FmUYERIDMTAy,53.3528896,-113.4195316
1696,ChIJj2Zz62ONolMRydB-SlcIQXc,55.2723922,-114.7801488
1697,ChIJx5gbQsJVdFMRXX-Dl08LBN4,52.2837404,-113.774179
1700,ChIJa9Hcl7pwcVMRFcs5Oq6kmxg,50.97870589999999,-114.0118755
1701,ChIJebns6lkWv1MRYI1tc_U1jgg,58.065566,-116.349803
1702,ChIJBUw7KI9Lv1MRpKvWn35j214,58.38733250000001,-116.0197006
1703,ChIJ80r0BkWDwFMR5xy66ieReNk,58.51228339999999,-117.1357339
1704,ChIJpWLVkO4_v1MR9yA37-EXrtM,58.187466,-116.4069991
1705,ChIJ_zUbVeyP6lMR0RWV6AZsoKM,58.49985599999999,-119.3995477
1706,ChIJBUw7KI9Lv1MRpKvWn35j214,58.38733250000001,-116.0197006
1709,ChIJ6canQkSDwFMROeTNZ9bMZIM,58.5107535,-117.1377788
1711,ChIJpWLVkO4_v1MR9yA37-EXrtM,58.187466,-116.4069991
1712,ChIJpWLVkO4_v1MR9yA37-EXrtM,58.187466,-116.4069991
1713,ChIJebns6lkWv1MRYI1tc_U1jgg,58.065566,-116.349803
1714,ChIJpWLVkO4_v1MR9yA37-EXrtM,58.187466,-116.4069991
1715,EjIxMDgwMCBSYWluYm93IEJsdmQsIEhpZ2ggTGV2ZWwsIEFCIFQwSCAxWjAsIENhbmFkYSIxEi8KFAoSCUFy8UtEg8BTEed7g9qVqlkzELBUKhQKEgndWEh4RIPAUxEh8wijDwif2g,58.51102729999999,-117.1355833
1716,Ei81NjAgQ2Fzc2lscyBSZCBFICMxLCBCcm9va3MsIEFCIFQxUiAxTTYsIENhbmFkYSIdGhsKFgoUChIJ235p7bJjbVMRbYL3kTDHAkMSATE,50.57231909999999,-111.8871095
1720,ChIJR2ncb2uHblMRtuiAKNZWdV0,49.7229028,-112.7900562
1722,ChIJh7_zJtd6cVMRwUxUoh4ga3M,51.0507722,-113.9937541
1724,ChIJwyroj8aZcVMR59L8pFVFdnM,50.731435,-113.956458
1725,ChIJO-YIbKNwcVMRywRnqWxR4wY,50.9844934,-114.0122208
1727,ChIJ32T7kD4kcVMRtcQJayoWU8Y,51.16154299999999,-114.850968
1728,ChIJT7Xc1W8tE1MReHKan3-GKRg,49.99975,-110.67261
1730,Ei04OTAxIDIwIEF2ZSAjNTIwLCBDb2xlbWFuLCBBQiBUMEsgME0wLCBDYW5hZGEiOho4CjESLwoUChIJ14MrdHaOb1MRXTLFSrQJUbgQxUUqFAoSCZlctC_Jj29TEYE8ZanvFlF1EgM1MjA,49.6339926,-114.4860938
1731,ChIJO_UysxoCn1MR9k99wDQ0hSs,53.59984799999999,-115.017701
1732,ChIJC4cCyRotE1MRUjFUSSMqOJA,50.017832,-110.6854718
1733,ChIJCTCM8GcioFMR8gz0dV-WSKs,53.5347669,-113.4759815
1735,ChIJfR6icxdfcVMRNDaIEl1mGeE,51.2896414,-114.0413333
1736,ChIJQ4K3QD1xcVMRsNKyfDRfBFw,50.9732868,-114.0776258
1738,ChIJ_8A6QQIcp1MRBm_m8J822sg,54.2513284,-111.1538702
1739,ChIJa9Hcl7pwcVMRFcs5Oq6kmxg,50.97870589999999,-114.0118755
1742,ChIJpWLVkO4_v1MR9yA37-EXrtM,58.187466,-116.4069991
1744,ChIJm9rrE2XCoVMRJybsQKVBR_A,54.1557127,-113.8604044
1745,ChIJc_l-JAcZoFMRxrE_Cwkvnuk,53.4740793,-113.4072484
1747,ChIJX_-E-1locVMRnuQtLVR4Yvo,51.15184619999999,-114.2028102
1749,ChIJT-6dVlNucVMRHu7t3-3O9Vk,51.0653292,-114.1427921
1750,ChIJuWtzgZV1cVMR7kkhxVV_MGQ,50.8837798,-114.0875796
1752,ChIJ7SXKQX5HoFMRaCacTQztAI4,53.6972557,-113.2248389
1753,ChIJX6SJMp1HoFMRHnMjo65dArQ,53.7053052,-113.2161425
1755,ChIJcWQdL43FcFMRHejqMM-NLWE,51.098515,-115.3639884
1756,ChIJqxPVApCyCVMR4LafhDRjT5I,53.2786167,-110.0125132
1761,ChIJ9ehPeRuRkFMRWZpE8PH9txs,55.1435617,-118.8120174
1762,ChIJofYjn819cVMRIkUiE6NMmwI,51.022189,-113.813412
1763,ChIJfR6icxdfcVMRNDaIEl1mGeE,51.2896414,-114.0413333
1764,ChIJR-tywKhfcVMRXYi9sJq6fwg,51.269565,-114.027468
1765,ChIJI3T9syYJsFMRl8mRzvjFAL4,56.75126659999999,-111.4261864
1766,ChIJe5yyl8IcoFMRwjX4jA93hpQ,53.3612687,-113.4306673
1767,EjkzMDEgU3BhcnJvdyBIYXdrIERyICMxLCBGb3J0IE1jTXVycmF5LCBBQiBUOUsgMFAxLCBDYW5hZGEiHRobChYKFAoSCWf8PkohCbBTEVVJOVjs7EN7EgEx,56.7508267,-111.4268978
1770,ChIJBUw7KI9Lv1MRpKvWn35j214,58.38733250000001,-116.0197006
1771,ChIJpU8xHMdadFMR-RPdu7iksZQ,52.1365002,-113.8727638
1772,ChIJR2ncb2uHblMRtuiAKNZWdV0,49.7229028,-112.7900562
1773,ChIJ041VSFdibVMR9_ofD29Tkc4,50.58069,-111.90541
1779,ChIJveIvaoOtCVMRckDrGJhK7xM,53.255761,-110.020068
1780,ChIJgd7Tf9O7ClMRKgu_pSeGDq8,53.0110063,-112.8377226
1781,ChIJWafLou1VdFMRb9KHOCFDvTg,52.2899699,-113.76177
1782,ChIJtxzpnl1WdFMRVt-VLzA-DnA,52.2471866,-113.7620208
1783,ChIJCWwKfeVVdFMRlbbj80qEPho,52.28284,-113.75574
1784,ChIJbQorgaxjbVMRG6Pfjf_eTZE,50.57013999999999,-111.89546
1785,ChIJJQQZmczUbFMRMbivU4aeOtQ,50.0789892,-110.7831508
1786,ChIJq5AHYisDoFMRkDOh49q9JQU,53.3388246,-113.4219993
1787,Ei4xMDAgQ29sbGVnZSBCbHZkLCBSZWQgRGVlciwgQUIgVDRSIDBNMywgQ2FuYWRhIjASLgoUChIJ3Q4StqVWdFMR6EnaPILcYD0QZCoUChIJXfAgq6VWdFMRBSgLpvvkEqk,52.2502423,-113.8292094
1790,ChIJ9SXgCikxwFMR2DSY_o6LXik,58.707471,-118.693053
1791,ChIJsxZOnVKDwFMRCY5i1VUSNdo,58.50706229999999,-117.140307
1792,ChIJBUw7KI9Lv1MRpKvWn35j214,58.38733250000001,-116.0197006
1793,ChIJBUw7KI9Lv1MRpKvWn35j214,58.38733250000001,-116.0197006
1794,ChIJpWLVkO4_v1MR9yA37-EXrtM,58.187466,-116.4069991
1796,ChIJz0Ajl0eDwFMR_Y-E2Q4dqMo,58.50585400000001,-117.1277033
1797,ChIJebns6lkWv1MRYI1tc_U1jgg,58.065566,-116.349803
1798,ChIJebns6lkWv1MRYI1tc_U1jgg,58.065566,-116.349803
1799,ChIJpWLVkO4_v1MR9yA37-EXrtM,58.187466,-116.4069991
1800,,,
1801,ChIJo2tagwX7r1MRX60xq7r9Tbo,56.4488858,-111.0474251
1802,ChIJ31J0kX1ZvVMRyrfr5q606vs,55.908325,-115.638719
1803,ChIJ-wP0LZ6AvVMRXc8t5il9qCA,56.469566,-116.377656
1804,ChIJFeNSYciQo1MRG6MoDlb51DQ,55.210335,-113.193325
1805,ChIJw39BzcFRo1MRUwudR2Ll8HY,56.1971419,-113.7335167
1806,ChIJ70B2ntG9pVMR6VF7ueGJHuw,55.55977420000001,-111.2554826
1807,ChIJv9HlhjVMo1MRnO5_hVvYTBc,56.0144698,-113.8215527
1808,ChIJHwwItybKp1MR-SB8aMqedj8,54.4137858,-110.2100375
1809,ChIJ8_ov6auFp1MRmS_hTOuQ4uM,53.89964519999999,-110.2162899
1810,ChIJXaVDSjiMtlMRV8gZTzzIP0s,58.719637,-111.140697
1812,ChIJc67yVSZ9sFMR1MHKhreKEAY,57.186758,-111.636785
1815,ChIJ13r3mCP2uFMRsBdIc3kzvfE,58.42842100000001,-114.5239345
1816,ChIJG81Uug4-uFMRAy_0b4s6SHc,58.713716,-113.892873
1817,ChIJGaHGeCtavVMRD-nJB1ah-_c,55.8820928,-115.8144805
1818,ChIJ5UjdQm33l1MRPFyi8Cu0vOA,55.52322299999999,-116.159278
1820,ChIJFQ00fY1kpVMRyzSi3whyo9U,55.845505,-110.905504
1821,ChIJ0YDazsKUuFMRQkNJRSenKOk,58.4947364,-115.1478669
1822,ChIJES4FKVjcv1MR41Uw6jJg6rk,57.78840400000001,-117.855936
1823,ChIJi76f8webvVMR6ZkQkY-jw_U,56.448545,-116.127043
1824,ChIJNxqMQoFTvFMRzzWH2rOqJeg,56.54698399999999,-115.256549
1825,ChIJV-g-HY78k1MRPBlgMSBSGwg,56.35309179999999,-119.4764329
1827,ChIJG8z4Fiq-v1MR6AB1iAZkGTo,57.95371599999999,-117.481545
1828,ChIJrcMPHwffvFMR4V1Bm9dWXe0,57.0534255,-114.7359752
1829,ChIJv9HlhjVMo1MRnO5_hVvYTBc,56.0144698,-113.8215527
1830,ChIJfeXRj0Utm1MROvF2q8f1Oys,53.8885721,-119.1142817
1832,ChIJ-R7ieBKNvFMRr6n59MIEFhg,56.493613,-114.558269
1833,ChIJrxoOJMYnmFMRJM5piBo_jfY,55.4328449,-116.488581
1834,EjwyNzUzIE5lZXdhdGluIERyICMyMTAsIFdhYmFzY2EtRGVzbWFyYWlzLCBBQiBUMEcgMkswLCBDYW5hZGEiHxodChYKFAoSCT0KxM5gTKNTERtGKyhCzHgfEgMyMTA,55.98198850000001,-113.8957943
1841,ChIJ3cJbrFYPsFMRd11YR9VsN4M,56.71750609999999,-111.3571674
1843,ChIJPfTJhQ4GsFMRu1IoHV9AYPs,56.693824,-111.3619603
1844,ChIJ7VCcccIIsFMRu0471cGZ5uM,56.7319533,-111.4191978
1845,ChIJC5NhufgFsFMREK2qXm1vKCU,56.7121194,-111.3517961
1848,ChIJZaht_PYIsFMRFTVl_zOGmmE,56.7270761,-111.4503727
1853,ChIJlQo8UXkGsFMRY0iZfWiEOQo,56.67402999999999,-111.340149
1854,ChIJ9f38IFUIsFMRL-v50dPIPmc,56.73732400000001,-111.4696407
1855,ChIJkTiqAQQJsFMRtd84qGeeokk,56.7459485,-111.4621638
1857,ChIJCxnACvcIsFMRETx1qpRdqLs,56.7283589,-111.4519409
1858,ChIJ_-qoiO8IsFMRMxOgwP4xx5k,56.7324612,-111.4368374
1861,ChIJHcmAoqEkoFMR3ynNhGsbo1I,53.606979,-113.4823986
1864,ChIJkTiqAQQJsFMRtd84qGeeokk,56.7459485,-111.4621638
1866,ChIJNU0CFFUIsFMRmZ0tdpB74tI,56.73712,-111.467881
1869,ChIJ-dRd2TkioFMR8R3m4xHqDJI,53.53997409999999,-113.5072378
1870,ChIJ-Xav7qgIsFMRhc5Dixoy8wE,56.71163079999999,-111.3796437
1871,ChIJUZF551MPsFMR76WRquv7ptg,56.7185571,-111.3595474
1872,ChIJl6ZwCjYHsFMRCGhkzXeWEpA,56.69521289999999,-111.3622807
1873,ChIJ6SBbg8IIsFMReVdRwRRnk5Q,56.7333493,-111.4210915
1885,ChIJEbr0s6kIsFMR5ItphU6bfF4,56.710153,-111.376191
1890,ChIJWTg0JvcIsFMRL8tIVelXeKQ,56.727934,-111.448266
1894,ChIJ31vhzQYJsFMRS8bez9zm96A,56.7456809,-111.4656918
1895,ChIJ1c8DgcgFsFMRecDscdgEJ58,56.7121194,-111.3517961
1898,ChIJKWSoUQSlplMRfBpWkL4ICyI,54.77420859999999,-111.9661447
1899,ChIJNY1XBe8IsFMRssIhyuKIO2w,56.7309435,-111.4335047
1903,ChIJ5x3oqHuNolMROMrmTToCdDg,55.2738435,-114.7757122
1904,ChIJKWSoUQSlplMRfBpWkL4ICyI,54.77420859999999,-111.9661447
1906,ChIJ6Q32Qu9ucVMRRg7Anzrm1MU,51.07950810000001,-114.1742894
1907,ChIJ8TuF3NG7ClMRUkY4PNNqyf8,53.01663,-112.83524
1909,ChIJ88E3LoNAcVMR93wPOSQs1VU,51.188159,-114.465378
1911,ChIJc0g8LxcjoFMR6lUhT6z99Gc,53.574372,-113.4650792
1912,ChIJMzSX5oIYoFMRzPAZpZ846Iw,53.514363,-113.4556465
1913,ChIJS6JEg-J2cVMRHyAYE0w96CE,50.9336037,-114.0222028
1919,ChIJ32T7kD4kcVMRtcQJayoWU8Y,51.16154299999999,-114.850968
1920,ChIJFzcbNUuaoVMR3KqK6RJF6CI,54.370912,-113.455132
1921,ChIJFzcbNUuaoVMR3KqK6RJF6CI,54.370912,-113.455132
1922,ChIJ88E3LoNAcVMR93wPOSQs1VU,51.188159,-114.465378
1923,ChIJWafLou1VdFMRb9KHOCFDvTg,52.2899699,-113.76177
1924,ChIJSW1Wh3f1n1MR-CHf2kyTz3o,53.4395704,-113.6171931
1925,ChIJVXdk8JGKn1MRdm_YG7EOCIM,53.5025345,-113.6831126
1926,ChIJZT9QyOUdoFMR3CWRl_lCDT0,53.3992735,-113.5353816
1927,ChIJNWRt0D0coFMRtYzYkGg9qDc,53.4077583,-113.452558
1928,ChIJn6T4qYEZoFMRDen1wiCk0KU,53.4456436,-113.3740037
1929,ChIJp7q1sAscoFMRgmWLWy6dIC8,53.411842,-113.4280455
1930,ChIJReXIdBKKn1MROB1TceHmnmA,53.5366114,-113.7030325
1931,ChIJXRq7-WokoFMRUQESAuESRRQ,53.60783,-113.55848
1933,ChIJ0ScvAHaKn1MRVK0JTP4vjGk,53.532077,-113.6828897
1934,ChIJad2WlI_1n1MRYx4cE3Gki8s,53.4275229,-113.6038289
1935,EjcyMDk5IEJsYWNrbXVkIENyZWVrIERyIFNXLCBFZG1vbnRvbiwgQUIgVDZXIDFKOSwgQ2FuYWRhIjESLwoUChIJ1egdgnseoFMRHtGOZ1cbvjIQsxAqFAoSCR3sK-N8HqBTEdN1BW4iZ0eQ,53.4210277,-113.515635
1936,ChIJTd2dDkkeoFMRqcFmnkK_Jlg,53.44212419999999,-113.5570317
1937,ChIJJQfhugxvcVMRXprjM-kBN5U,51.0818085,-114.1228917
1938,ChIJ35PGvV9doVMRoIyOHlahZ6g,54.58734250000001,-112.8033552
1939,ChIJmYFLz-8joFMRAkIFPWHvx9E,53.5763565,-113.5490293
1940,ChIJXf0EVzsjoFMRtQ6AQeExpbc,53.5760072,-113.4485556
1943,ChIJXf0EVzsjoFMRtQ6AQeExpbc,53.5760072,-113.4485556
1948,ChIJXf0EVzsjoFMRtQ6AQeExpbc,53.5760072,-113.4485556
1949,ChIJI9K6Fa5lcVMRlDvxqimq_2k,51.10250869999999,-114.04439
1950,ChIJt85pQOP1n1MRP4vp0n7Ztb8,53.4024323,-113.5852967
1951,ChIJAUCZDjA9oFMRIzu-taVUwVE,53.5636078,-113.390632
1952,ChIJnaW6Di5UdFMRR3Hztq88okk,52.271418,-113.8070093
1953,ChIJJXcdos-7ClMRFKORilyWC0s,53.0199237,-112.8339947
1955,EjExMjgxNSAxMDRBIFN0LCBHcmFuZGUgUHJhaXJpZSwgQUIgVDhXIDJNNywgQ2FuYWRhIjESLwoUChIJl_HmbRmRkFMReucE246w96YQj2QqFAoSCbdDfZ4ZkZBTERExL-r4FoeD,55.14632839999999,-118.8091266
1956,ChIJc19PyE10cVMRAnxRhxunjIg,50.9039843,-114.1154439
1957,EjAzNDAgUGlvbmVlciBSZCwgU3BydWNlIEdyb3ZlLCBBQiBUN1ggMEE3LCBDYW5hZGEiMRIvChQKEgkPtWy30o6fUxGnYEGrWBgl8hDUAioUChIJqQDrEreOn1MRlzR3ZcQHMaQ,53.5595197,-113.8601079
1959,ChIJjbgLmoWyCVMReLhZl6zW2PM,53.2761868,-110.016882
1960,ChIJjyCx256JnVMRxy_KcGvCPoM,52.3251528,-113.8609792
1961,ChIJqZbt7I1wcVMRaHzLOvA5iYc,50.9957898,-114.0359177
1962,ChIJp7sL8Et0cVMRl7IGhBRe1mI,50.9058202,-114.110808
1963,EjUzNTYgQ3JhbnN0b24gUmQgU0UgIzQwMzgsIENhbGdhcnksIEFCIFQzTSAwUzksIENhbmFkYSIgGh4KFgoUChIJQQXh1YOdcVMRA8iszw0n2wYSBDQwMzg,50.8802248,-113.9781786
1964,ChIJhWHGRT9xcVMR0ug7XFXjQU8,50.9682103,-114.0868133
1965,EjoxMjIyIEtlbnNpbmd0b24gQ2xvc2UgTlcgIzMwMSwgQ2FsZ2FyeSwgQUIgVDJOIDNKNywgQ2FuYWRhIh8aHQoWChQKEgl5o4W06W9xUxHDz40z09QHwhIDMzAx,51.0519663,-114.0915325
1966,ChIJX1VRGlwvoFMRnKQ-Gi_H1Og,53.6704987,-113.6280035
1967,ChIJBVNmbJ0goFMR3MgqRZoGQKA,53.5293662,-113.6781409
1968,ChIJNcq7Bh8coFMR09xfV7Fk9Y4,53.42027230000001,-113.4635348
1969,ChIJVWInunn1n1MR4DA4A1ia6MI,53.4411394,-113.6156777
1970,ChIJ11j5TpkioFMR8coWa6BLsGE,53.52955499999999,-113.4250724
1971,ChIJ3fOSzPsdoFMRJ61b6VrQ6EA,53.3972948,-113.5485111
1972,ChIJUdL1rW47oFMRgWa5u-HRzDE,53.6315013,-113.4229513
1973,ChIJ852vdPgboFMR8a_HHvXxlwE,53.4204288,-113.4293436
1974,ChIJWdXn5doloFMRxIaSDmnuteA,53.63568009999999,-113.6102749
1975,ChIJYZtFk8eHblMRcTsTiu-10GY,49.7023641,-112.8342596
1976,ChIJO3XBweBvcVMRmm55qOpCicc,51.043815,-114.084196
1977,ChIJ-Zd2s7pfcVMR1hdSQXXSN6k,51.26438899999999,-114.0185439
1978,ChIJRYmO0I1fcVMRJiMt2rjKCI8,51.26665000000001,-113.9837
1979,ChIJqzO6-O6On1MRp0cK_1JoGlw,53.54630170000001,-113.8999335
1980,ChIJHY0NzdaydVMRIoU2OYEvOkg,52.2952132,-114.1044676
1981,ChIJj806WwZxcVMRtMKHRQF3TSM,50.99074659999999,-114.0882983
1982,ChIJfwWfeSpucVMR8ZoeULBAc_k,51.0325327,-114.1174805
1983,ChIJwzqtFtsfoFMRPt3QEbQBlCs,53.4588969,-113.3543935
1984,ChIJUXKn28yZcVMRGyKtdYddpZc,50.7251246,-113.9720028
1985,Ei00NzAyIDUxIFN0ICMzODAsIEdyaW1zaGF3LCBBQiBUMEggMVcwLCBDYW5hZGEiHxodChYKFAoSCbldDLpKWJZTESDOlUOOPWrmEgMzODA,56.1880345,-117.6097511
1986,ChIJuaNAybgXoFMRa0ckogrF594,53.5197359,-113.3215482
1987,ChIJebns6lkWv1MRYI1tc_U1jgg,58.065566,-116.349803
1989,ChIJi2bWrJljcVMR6LAKkersFrE,51.12215339999999,-113.9489041
1996,EjE0MTAgMjAgU3QgIzE4MTAsIEZvcnQgTWFjbGVvZCwgQUIgVDBMIDBaMCwgQ2FuYWRhIiAaHgoWChQKEgmDbBg-MFtuUxFgmadsruOZqxIEMTgxMA,49.72222619999999,-113.402431
1997,ChIJ851iUx8CbFMRYfctRU0bqEU,49.28309340000001,-112.2074188
1998,EioyIFN1bmRvd24gUmQsIENvY2hyYW5lLCBBQiBUNEMgMEg0LCBDYW5hZGEiMBIuChQKEgkN-3Hgt0BxUxHLc_br0zMwdhACKhQKEglxHNv3t0BxUxELqYg2SmXe_w,51.2136453,-114.4580302
1999,ChIJ2c0SgI1zcVMRSt_D3SbOd1I,50.9484432,-114.1464903
2000,ChIJp9kWTO9kcVMR_5A0k5sH1po,51.0861289,-113.9991192
2002,ChIJAUO--nUinFMRRAXQpcNtcOk,53.5937063,-116.4305664
2004,ChIJG0M5K3QinFMR7R4na4H-RXA,53.59164759999999,-116.4288904
2007,ChIJJ5yEjXwinFMRsnhvJxvkBU8,53.582215,-116.441568
2008,ChIJO_UysxoCn1MR9k99wDQ0hSs,53.59984799999999,-115.017701
2009,ChIJO_UysxoCn1MR9k99wDQ0hSs,53.59984799999999,-115.017701
2010,ChIJUQFdqgu8nlMRryJkMoehflU,53.7896717,-115.9828512
2011,ChIJUYqKpH-OnFMRaHANMO6pr2I,53.4149848,-117.5577969
2012,ChIJa6twXoGOnFMR6Ig6hZCEjz4,53.41973669999999,-117.549562
2013,ChIJd95Y5eSNnFMRTOwwjsBJaIQ,53.3965486,-117.5906869
2015,ChIJeahrRdaTnlMRar66de5gZrA,53.617312,-115.769543
2018,ChIJ8znBHjD6nlMRN1BMZDKEp1k,53.609965,-115.235548
2023,EiwxMjA1IFdlc3RoYXZlbiBEciwgRWRzb24sIEFCIFQ3RSAxWDIsIENhbmFkYSIxEi8KFAoSCQvmuhJ_IpxTEUNIpx372nNgELUJKhQKEgltcoQRfyKcUxEt8n0Mx63Vdw,53.5881398,-116.4494971
2024,ChIJh4ebI3winFMRGwIVmiJxBSY,53.5844937,-116.4450459
2026,ChIJIQVcgREinFMRBUJwdLZ9Fs0,53.5864269,-116.4034247
2027,ChIJIQVcgREinFMRBUJwdLZ9Fs0,53.5864269,-116.4034247
2028,ChIJaTDUxoSOnFMRpK3xpvJmVp4,53.42378309999999,-117.5450663
2029,ChIJOQt88f5mcVMRZ1LIV5QYBAM,51.16859119999999,-114.0877601
2030,ChIJfdvpVu-NnFMR-qx99jGppxA,53.3948191,-117.5832795
2031,ChIJyaBd83BpcVMR_hWnTjCxHSQ,51.1281259,-114.2511731
2032,Ejo0OTM0IDUwIFN0ICMyMDM3LCBSb2NreSBNb3VudGFpbiBIb3VzZSwgQUIgVDRUIDFDMiwgQ2FuYWRhIiAaHgoWChQKEgmBALQjLNl1UxFNiQJQJo3-BBIEMjAzNw,52.3742159,-114.919753
2033,ChIJdy1gNG_MdFMRhgaM0-B2OxU,52.3273205,-112.7047998
2034,ChIJb8ZcandHoFMR5gkUccMf9oc,53.700545,-113.209719
2035,ChIJKT5VaAgrg1MRgigZC70CIB8,52.8736786,-118.0813581
2036,ChIJKT5VaAgrg1MRgigZC70CIB8,52.8736786,-118.0813581
2037,ChIJiRYx3YY4oFMRFMKWNzyJOoY,53.6954091,-113.2382278
2038,ChIJ_b8R54JHoFMRhVfTvj9PkHA,53.7057046,-113.2185673
2039,ChIJQdJ-QbEXoFMRzTMt5Ym1zvI,53.5178208,-113.3039438
2040,ChIJtczWqksWoFMRJNXatuQNKX4,53.5241481,-113.2931803
2041,ChIJBzEflO49oFMRkPjHOuxUegw,53.5664013,-113.2877046
2042,ChIJfeXRj0Utm1MROvF2q8f1Oys,53.8885721,-119.1142817
2043,ChIJfeXRj0Utm1MROvF2q8f1Oys,53.8885721,-119.1142817
2044,ChIJfeXRj0Utm1MROvF2q8f1Oys,53.8885721,-119.1142817
2045,ChIJt3ndwzsWoFMRIohzA0fRk38,53.5360162,-113.2832865
2046,ChIJUwS7ptMXoFMRqGZeLkzK3AY,53.5378424,-113.316109
2047,ChIJc2eQVjQWoFMR_jWUkryhnQc,53.5289807,-113.299141
2051,ChIJPXvaQB0SoFMROL1vV9tRPr8,53.4147846,-113.1228557
2053,ChIJsaB07WkVoFMRKKvguum55Hw,53.5617244,-113.146092
2054,ChIJtwFGjdZtcVMRu8fdO0MxSEc,51.0505045,-114.205418
2055,ChIJSdVrgMB3cVMRy8SK03fvtV0,50.91055,-113.96939
2056,ChIJt3JPdbFjcVMRIGfRs74q8Ps,51.13168959999999,-113.9286875
2057,ChIJ55KKLeXllVMRwZ2rGyLHgmQ,56.9234843,-117.6324667
2059,ChIJO85XDVv5n1MRns5O4vPk1gk,53.2383145,-113.5500107
2060,ChIJeyqjJtMcoFMRPMQx6duvL4E,53.3419713,-113.420485
2061,ChIJL-DiRE8AdVMRPpo_qb7Tv48,52.3877302,-113.7735369
2062,ChIJXaOAmoCHblMRwIBjPDYg1xE,49.73352,-112.83052
2063,Ei1Id3kgNTUyLCBGb290aGlsbHMgQ291bnR5LCBBQiBUMEwgMFgwLCBDYW5hZGEiLiosChQKEgm5KZwzbJ5xUxESgGV_r3hZQhIUChIJUTYV8Mq6cVMRRAFUoMvYKOU,50.848634,-114.040468
2064,ChIJZQ2s0K0joFMREM-bzAJgu14,53.559357,-113.4960151
2065,ChIJL8Rh6tT7n1MR9YnGIq-276U,53.25875569999999,-113.5901511
2066,ChIJKfTbIWfMdFMR2_fItPu9X88,52.3316972,-112.699095
2067,ChIJPVDlwalpcVMR8haTF8cwiGU,51.1398872,-114.2198056
2068,ChIJkcRPr5VjcVMR6FA2SXCkuO8,51.1306939,-113.9556247
2069,ChIJt9eleEh0cVMRZpb1KmJmCWY,50.91117999999999,-114.11258
2070,ChIJdZG4Yot3cVMR5l_05aQQ_z4,50.9169782,-113.9447433
2071,ChIJ9ftqmqeyc1MRKt972Ytn5jk,51.1096095,-112.983208
2072,ChIJK96YDY53cVMRMOawKF-ey3k,50.91946910000001,-113.9539258
2073,ChIJm5Gz4Ac2bFMREFxekVCdkaA,49.78545750000001,-112.1487889
2074,ChIJ39bwZWgJsFMR2A-wPrXiiWk,56.7745824,-111.4607178
2075,EjcxMDYgUGFyc29ucyBDcmVlayBEciwgRm9ydCBNY011cnJheSwgQUIgVDlLIDBLMywgQ2FuYWRhIjASLgoUChIJNb8SsA0JsFMR8MnR96Tag1MQaioUChIJrZokURIJsFMRuCAcRLHMiIk,56.758868,-111.46708
2076,ChIJOVnY19GWkFMRD_v_hXk4D5c,55.16261489999999,-118.7604814
2077,Eis3MTQ5IDExNCBTdCwgR3JhbmRlIFByYWlyaWUsIEFCIFQ4VywgQ2FuYWRhIjESLwoUChIJewj0SAiRkFMRCjfPwmuLCY8Q7TcqFAoSCTvM3RAIkZBTETtKPTlHOnv-,55.1455896,-118.8374724
2078,ChIJESPDEmyUkFMRbEXNQDZIr9A,55.215684,-118.8068504
2079,EjExMDUgQ290dG9ud29vZCBEciwgQmxhY2tmYWxkcywgQUIgVDBNIDBKMCwgQ2FuYWRhIjASLgoUChIJNcZBrUgAdVMRkDgncTd1TUMQaSoUChIJsfrgM0QAdVMRMbSrCFjDh3E,52.38689979999999,-113.7733102
2080,ChIJ9WV_deB3cVMR0yrsx9-MF9Y,50.8933266,-113.9495728
2081,ChIJJ34jf52dcVMRbI6FOfCfBok,50.8743122,-113.9680004
2082,ChIJyTO7wCB4cVMRsXMRz8wYnZ0,50.9210563,-113.9370931
2083,ChIJLbbv06RncVMRhL0s0xcMbBk,51.1788856,-114.1207507
2084,ChIJRygVtIGdcVMRzF6NJ4gz4yQ,50.8827379,-113.9784211
2085,ChIJl7AVj9t3cVMR2xAPl4BC-90,50.8967542,-113.9623697
2086,ChIJHdwF9B54cVMRNTYTI8nEM2o,50.9147831,-113.9286358
2087,ChIJlQ86mStscVMRZALKkYzGQhw,51.05860449999999,-114.2142634
2088,ChIJT3EVqkxmcVMR3nYNFlfIMTY,51.165108,-114.117344
2090,ChIJsb0QoS7jwFMRDNGoIoOsS3M,59.0464596,-117.7102669
2093,ChIJYzbF25RUCVMRMHhIq_fyPF0,52.3557149,-110.2603858
2094,ChIJHyvXl7pwcVMRAFJg6Sr63iI,50.97866579999999,-114.011872
2095,ChIJfeXRj0Utm1MROvF2q8f1Oys,53.8885721,-119.1142817
2103,ChIJYxs4OvMJn1MRhipqAz2pRiA,53.670251,-114.589913
2104,ChIJHUxTBsUjn1MRjqhS_7YyLP8,53.9548278,-115.1422651
2105,ChIJAwE4UhKdn1MR1o65y3Qkr_0,53.7028245,-114.1927899
2106,ChIJP_3wWbR1n1MRajra7Xm4tww,53.7329247,-114.3731912
2107,ChIJDaleBgYXn1MRBLb4q3vemZ0,53.8878883,-114.8997315
2108,ChIJFctRhlvTnlMRHgHRXdFzzGc,54.1274607,-115.6694263
2109,ChIJ1U3VUassmVMRC7ZZt5iydww,54.1428229,-115.6796855
2110,ChIJAwE4UhKdn1MR1o65y3Qkr_0,53.7028245,-114.1927899
2112,ChIJC9vHDkXTnlMRw5f3gArjOuI,54.12855800000001,-115.680576
2113,ChIJHUxTBsUjn1MRjqhS_7YyLP8,53.9548278,-115.1422651
2114,ChIJs7U16TSen1MRTSKfkItZHqQ,53.6779471,-114.352253
2115,ChIJ7ROG6lIrmVMRzWmJ6Haqwv8,54.1487566,-115.6588087
2117,ChIJrW7-bCiPn1MRDrtkMhTN0h4,53.5661168,-113.8836156
2123,ChIJV81Uofd6cVMRcxqRu7xuNdw,51.0206885,-113.9793451
2124,ChIJKWSoUQSlplMRfBpWkL4ICyI,54.77420859999999,-111.9661447
2125,ChIJbfLsuvQioFMRAew9O64QlgY,53.5403639,-113.4553665
2126,ChIJv-CQJhVukVMRUQvp7My2n4c,55.91257,-119.827345
2131,ChIJDU93jDAyE1MRE9s05hirJxc,49.969226,-110.5868132
2132,ChIJAQl0JjRUdFMR5HQiZ_zB6h0,52.278945,-113.812904
2135,ChIJHUxTBsUjn1MRjqhS_7YyLP8,53.9548278,-115.1422651
2136,ChIJU6MGvp84oFMRSix8daNC-2s,53.68184429999999,-113.2167025
2137,ChIJiW_-U2pablMRjl8sNGLXlLQ,49.7223893,-113.4030896
2138,ChIJu00EiVJ_p1MRVS9Zft6CV7A,53.84722679999999,-110.4331246
2142,ChIJqb7iShIsE1MRXP9Pn9KMyUA,50.06117,-110.66271
2143,ChIJAQQ_6-9WdFMRMc-rLw1Kugg,52.23343999999999,-113.78303
2144,ChIJc4klDgOJblMRHXdaf7-KyWQ,49.6655299,-112.90815
2145,ChIJt3ZMZpBjcVMR8V8-I6ExnEo,51.1232804,-113.9594645
2146,ChIJ0arsR5R1cVMR_8dY7XcCl0w,50.8807,-114.08657
2147,ChIJqzWPNORtcVMRXkwiNKDyx1U,51.0308322,-114.1950775
2148,ChIJISsMq_iTkFMRj7_0aW4fHVg,55.1921579,-118.8106334
2149,ChIJJf752jlpcVMRFfHNnKmdPTw,51.11132,-114.21436
2150,ChIJEeazuCwDoFMRoYLyk_7nvDo,53.3392833,-113.4216416
2151,ChIJR0fl9bJfcVMRaC4QcDlrzDg,51.26041000000001,-114.03023
2152,ChIJf5WYFJY_cVMRzLaM_df8wa0,51.1591499,-114.4777
2153,ChIJdy1gNG_MdFMRhgaM0-B2OxU,52.3273205,-112.7047998
2155,ChIJXSAHB31hcVMRWzkMvyZQ5z0,51.15861,-113.95562
2156,ChIJG0hQLsRtcVMRm-F0VOxuL2I,51.0405281,-114.2166951
2157,EjVBcmJvdXIgSGlsbHMgQmx2ZCwgR3JhbmRlIFByYWlyaWUsIEFCIFQ4ViA0SjcsIENhbmFkYSIuKiwKFAoSCUMFDjAJlJBTEaz0grysPkVHEhQKEgmp0QtgDpSQUxETTndtJonmCg,55.2016848,-118.8114524
2158,ChIJRWndttENp1MR5iiZL1LG5GU,54.12275349999999,-110.8069613
2159,ChIJC9_SygUEdVMRJzHabIqiZIg,52.4634039,-113.737992
2160,ChIJy7w_PcB1cVMRZg2tWpN3B8c,50.88609,-114.08226
2161,EiozNjAwIDQ4IEF2ZSwgQXRoYWJhc2NhLCBBQiBUOVMgMU03LCBDYW5hZGEiMRIvChQKEgkZbRJQcdejUxFx7JFR4Yx84hCQHCoUChIJ2SDstXDXo1MR281P_0MKYrE,54.7169473,-113.2598041
2162,ChIJOVc112DMc1MRmYIW6mJRHz4,51.061138,-113.389778
2163,ChIJKT5VaAgrg1MRgigZC70CIB8,52.8736786,-118.0813581
2164,EjYxOTkgUXVlZW4gQ2hhcmxvdHRlIERyIFNFLCBDYWxnYXJ5LCBBQiBUMkogNEgxLCBDYW5hZGEiMRIvChQKEgmxNwmV4nZxUxHAR9mYZcGYhBDHASoUChIJyal7mR13cVMRFcYTb1oiDU8,50.93211669999999,-114.0230382
2166,ChIJ64M3_GQhoFMRenHUA-7dmCU,53.5535788,-113.5647807
2167,ChIJ67j6tS1wcVMRZim--_wEAaU,51.02729189999999,-114.1007095
2169,ChIJXQz0ybMZoFMR-76nUrZMJzw,53.48128999999999,-113.38326
2170,ChIJQSQ84awsmVMRi5aSyo4ph40,54.1470242,-115.6627164
2171,ChIJ15MNp1UrmVMR0rJEkg6MN28,54.14715109999999,-115.6719182
2172,ChIJA8P8MEA7oFMR3gvXwCxCPns,53.63298649999999,-113.4357335
2173,ChIJxQeZeZkeoFMRQ77566pcsf4,53.4277376,-113.4828978
2174,EjUzNzEwIFdlc3R3aW5kcyBEciBORSAjMTIsIENhbGdhcnksIEFCIFQzSiA1SDMsIENhbmFkYSIeGhwKFgoUChIJcwi4f4BkcVMRW0EuIO000nISAjEy,51.10832,-113.9717485
2175,ChIJN_O78QmecVMR--GUg36-cb0,50.8599699,-114.02725
2176,ChIJbyRUiCkfoFMRBHPXdlwhbr0,53.4672205,-113.4822651
2177,ChIJV-g-HY78k1MRPBlgMSBSGwg,56.35309179999999,-119.4764329
2178,ChIJdZQduUxlcVMRZ65JU9Kky30,51.0515894,-114.033426
2180,ChIJTRLax26dcVMRcoxpgsK8Hzs,50.87795999999999,-113.94553
2181,ChIJFwdwSCGPn1MR-xvcuamisrA,53.55466,-113.95457
2182,ChIJQW6plQMWoFMReu47SMb7Yhw,53.55222,-113.26129
2183,ChIJ7QSj8v2QDVMRXFfXLIJ0Iic,51.157764,-110.214152
2184,ChIJddmAIZo4oFMRXCNCanpUFvw,53.6834392,-113.2314726
2185,ChIJY_UiGioWoFMRMuICh1i3GPM,53.5457249,-113.3090933
2186,ChIJJRgiFZktoFMRXuo8t1-PRTY,53.7910843,-113.6476545
2187,ChIJK_wf5FUvoFMRfCp-q4tLXeY,53.662731,-113.6405034
2188,ChIJ0UNfff8loFMRGrXZ4rhP5iY,53.66107,-113.64277
2189,ChIJb6qtFf93cVMRAsvKEe3dxD0,50.9015575,-113.9243927
2190,ChIJA3RtRSRzn1MRMlCF4C6fZzk,53.797487,-114.51984
2193,ChIJLWXFX1PTnlMRook25HOkhc4,54.141089,-115.6780853
2195,ChIJNw0yXtNncVMRgkMdQGMMelQ,51.1599685,-114.1482014
2196,ChIJC4rO54vMc1MRKeewYRRkozs,51.054098,-113.3794269
2197,ChIJ49OVe3ktE1MRnnxxO1CQhWc,49.9965512,-110.6596607
2198,ChIJeYIMf9uIblMREQngz8zxZEQ,49.65376999999999,-112.87924
2199,ChIJ0cTxM2gJsFMRkmUeOPOM4UY,56.7734882,-111.4575859
2200,ChIJDU93jDAyE1MRE9s05hirJxc,49.969226,-110.5868132
2201,ChIJS1ixC71HnlMRzENfMalsYL0,53.216608,-114.963333
2202,ChIJF9GQ4chHnlMRkX9Zpm0AWY8,53.2309029,-114.955721
2203,Ei80NjI5IDQ2IEF2ZSwgRHJheXRvbiBWYWxsZXksIEFCIFQ3QSAxUDIsIENhbmFkYSIxEi8KFAoSCcNv0xSjR55TERZu6PcIcbzPEJUkKhQKEgm7WMqtpkeeUxFXnpF8Ma2oIQ,53.21662269999999,-114.9715335
2204,ChIJKTVe8Nqin1MR6FLo12UdcIE,53.52513099999999,-114.345607
2205,ChIJOXlPDM__nlMRqc-E-NOXTAg,53.591125,-114.989931
2208,ChIJNQA6XOKOn1MRVygCrGDsl1Q,53.556485,-113.908705
2209,ChIJ_yRoAPGRn1MRBzPz7MvZ_is,53.5055177,-113.986711
2210,ChIJgxfK_MaRn1MRvDBNnK01PK8,53.5224038,-114.0106157
2211,ChIJY0SeaeaRn1MREUdnIxruV8o,53.5156843,-113.9874005
2212,ChIJLbLGkPWjn1MR-k_p1sAcK3s,53.5597384,-114.4733387
2214,ChIJv4RiuMmyn1MRH3fouWNjcpw,53.39584499999999,-114.763275
2217,ChIJr3ESvTCPn1MRqnkohbB3z8w,53.5780475,-113.8947803
2219,ChIJy3yfKOaOn1MR5Esc7BioeI0,53.5502946,-113.8961618
2220,ChIJ3Xu2i9WRn1MRSK9BI8Ka40E,53.5375989,-113.9923315
2221,Ei00NzUgS2luZyBTdCwgU3BydWNlIEdyb3ZlLCBBQiBUN1ggMUExLCBDYW5hZGEiMRIvChQKEgkdMqEV5o6fUxEHgVY9tmhCmBDbAyoUChIJF4snJOaOn1MRm3BYeBC9OZg,53.5516381,-113.8974731
2223,ChIJAQAAUM2On1MRTJLXgP8UqbQ,53.5574704,-113.8592733
2224,ChIJafj3T_uOn1MRJmfSYM1FcXs,53.5521355,-113.9113003
2225,ChIJFeXeA9uRn1MRUEHxXfAZevg,53.5261214,-113.9965225
2226,ChIJkVznj8WRn1MREaYITzteRo4,53.5262994,-114.0064337
2227,EktTY2VuaWMgVmlldyBFc3RhdGVzLCAxNTMyIFBhcmtsYW5kIERyICM3MDAsIFN0b255IFBsYWluLCBBQiBUN1ogMVk2LCBDYW5hZGEiHxodChYKFAoSCX-dFWGtkJ9TERfaiGp41SstEgM3MDA,53.5429099,-114.1457138
2228,ChIJixySNOyOn1MR7ZBc9BdknW4,53.543312,-113.89705
2229,ChIJeS-emIPtn1MRnE3OUsqHtBU,53.38160269999999,-113.8606738
2231,ChIJh6vUi8dHnlMRn8mcV8CBbKA,53.2259788,-114.957467
2233,ChIJTSfKv9WRn1MRLI0ksyYm_e8,53.5369536,-113.9938884
2234,ChIJTSfKv9WRn1MRLI0ksyYm_e8,53.5369536,-113.9938884
2235,ChIJTSfKv9WRn1MRLI0ksyYm_e8,53.5369536,-113.9938884
2236,ChIJRW63WgJ0cVMR1mScqvGT4TU,50.9396435,-114.1015782
2237,EjQ0MjA0IEtlcGxlciBTdCAjMTk0OSwgV2hpdGVjb3VydCwgQUIgVDdTIDBBMywgQ2FuYWRhIiAaHgoWChQKEgmxiuqMWdOeUxGkGH_zfgW5NBIEMTk0OQ,54.1316973,-115.6686546
2238,ChIJ0YccN8BWp1MR4dByJbb8aes,53.6611524,-111.2308465
2239,EjYxMDcyMCAxMTcgQXZlICMxMDMsIEdyYW5kZSBQcmFpcmllLCBBQiBUOFYgN043LCBDYW5hZGEiHxodChYKFAoSCaeC1MP9k5BTEUFZYC0fLd1iEgMxMDM,55.1863094,-118.8160885
2242,ChIJV2PQ6vssE1MR_CWpjWjuSxM,50.0328265,-110.6899517
2243,ChIJaYWv1xrNc1MRaTjuXfRztHw,51.0378827,-113.4216936
2244,ChIJcYllglMfoFMRINzcGd3RtgQ,53.4998225,-113.5069194
2245,ChIJpUrV0CBxcVMRHICQHBt2phs,50.9731481,-114.0614526
2246,EiU0MDA0IDQgU3QgTkUsIENhbGdhcnksIEFCIFQyRSwgQ2FuYWRhIjESLwoUChIJ25nDNmxlcVMR2VCBnMjcsMsQpB8qFAoSCVljEsFCZXFTEWmrG4Fp7pF6,51.076631,-114.0521989
2247,ChIJc1qeSLlxcVMRv37Jd9q8Usg,51.0066127,-114.1135908
2248,ChIJtWcinT4toFMRar6JznJheuY,53.7958064,-113.6255382
2249,Ei0xMTgxMCAzNSBBdmUgU1csIEVkbW9udG9uLCBBQiBUNlcgM0w5LCBDYW5hZGEiMRIvChQKEgkzBi6g5B2gUxFWPS8ScjmuIRCiXCoUChIJ_1BTm-QdoFMRCc6LO8RXtA4,53.4012526,-113.5415487
2250,ChIJdRS74r2ZcVMR1upV4WlMWMA,50.74203,-113.95505
2251,ChIJ5TO3NchfcVMRPDeL4JA5i4k,51.25322,-114.01426
2252,ChIJ43xEyxIWoFMRqpnWdjASRv4,53.53588749999999,-113.254998
2254,ChIJKT5VaAgrg1MRgigZC70CIB8,52.8736786,-118.0813581
2255,ChIJEwKQr59pcVMRGb_b9RRnONw,51.1387379,-114.24885
2256,ChIJ5QdW3HtzkVMRYdgmhpK0yUM,55.82481629999999,-119.9051597
2257,ChIJk6gnAiqYblMRTXeuQ1RIwlE,49.4629315,-112.661928
2259,ChIJ6QgvvblfcVMRPi_iTDH6QzY,51.25895999999999,-114.01211
2260,ChIJVays-00PsFMRQtzgH8ewKaE,56.72637959999999,-111.3803407
2261,ChIJ_-qoiO8IsFMRMxOgwP4xx5k,56.7324612,-111.4368374
2262,ChIJa9Hcl7pwcVMRFcs5Oq6kmxg,50.97870589999999,-114.0118755
2263,ChIJ7wAsFaUtE1MRDrefdLdH1Oo,50.0203764,-110.656224
2264,ChIJBZAEuMJ8bFMRy70TwcGNmuM,49.4790113,-111.4407059
2266,ChIJGSzq4CkdoFMRJT_HOxBLKiE,53.40445,-113.45254
2267,ChIJf8jJmEIhoFMR4-UbqiGgZkc,53.560163,-113.578538
2268,ChIJI4Bi2f8goFMRMSfmE5ivE9U,53.5325802,-113.6081702
2269,ChIJ5cyhV1QgoFMRp_ZkdgdNHn0,53.52726999999999,-113.60773
2270,ChIJJ8ZU-rtHnlMRj973ZjfPPdo,53.2209211,-114.963432
2271,ChIJjcT7yvmOn1MRKXJ7uzzrP3I,53.546862,-113.9191383
2272,ChIJ1b7sVMKRn1MR5VnLLAzPCt0,53.5196964,-113.999316
2273,ChIJwXklEtyOn1MRHXrANpd0KNk,53.55684,-113.88739
2274,ChIJrwayJNyOn1MRzbYEa2UbdoQ,53.5568,-113.88922
2275,EjEzNTEgQ2hhcHBlbGxlIERyIFNXLCBFZG1vbnRvbiwgQUIgVDZXIDJXOCwgQ2FuYWRhIjESLwoUChIJbQXvWgAeoFMRzgzI9qt5Xk8Q3wIqFAoSCQ0DKJH_9Z9TEV8Wq2UCoDwR,53.40521640000001,-113.5619091
2278,ChIJc1fzcqwKmFMRhnUw8AuoVhs,55.33158299999999,-115.4331334
2280,ChIJVzkFiT90cVMRtaJB1qFsveY,50.9201848,-114.1157627
2281,ChIJG1dnp4KdcVMR2rDgQu6bErk,50.87745,-113.97154
2282,ChIJAWeGlb9mcVMRbLpdIS9E-S0,51.15716,-114.04715
2283,EjMxMDQgUGFxdWV0dGUgU3QsIEZvcnQgQ2hpcGV3eWFuLCBBQiBUMFAgMUIwLCBDYW5hZGEiMBIuChQKEglLD2rlO4y2UxGsDMIUv8REMxBoKhQKEgnv1iNzPIy2UxEHaIraYyxS7g,58.7171861,-111.1454408
2284,EjUxMDQwNSBKYXNwZXIgQXZlIDE0MCAyMSwgRWRtb250b24sIEFCIFQ1SiAzUzIsIENhbmFkYSIiGiAKFgoUChIJm7sok0cioFMRR616D1yZf7YSBjE0MCAyMQ,53.5405641,-113.5001376
2285,Ei8xMzggMTggQXZlIFNFICMxMTAsIENhbGdhcnksIEFCIFQyRyA1UDksIENhbmFkYSIfGh0KFgoUChIJ-34HxgRwcVMRY9eMtsSQUoESAzExMA,51.0372637,-114.0618072
2286,ChIJ_5TAlQZocVMRckELO2UkRIc,51.1869659,-114.1894469
2287,ChIJ2WrMN9MDDUsRpY9Doiq3aJk,56.130366,-106.346771
2289,ChIJR3hiSaRHnlMRQve9rEHCZPo,53.21988409999999,-114.9777252
2290,ChIJR6wZ-cWRn1MR3Co9r4fntjw,53.526583,-114.0094297
2291,ChIJKTVe8Nqin1MR6FLo12UdcIE,53.52513099999999,-114.345607
2293,EjM1MzIwIEVkZ2Vtb250IEJsdmQgTlcsIEVkbW9udG9uLCBBQiBUNk0gME45LCBDYW5hZGEiMRIvChQKEgkTn-FeLfWfUxEiFk6QxckrHhDIKSoUChIJAY9emzP1n1MR-lPSIkHfCCw,53.468388,-113.6813645
2294,ChIJ6_fzRa9HnlMRRGJEyHiloYc,53.2231787,-114.9834766
2298,EjUxMDA0NSAxNTYgU3QgTlcgMm5kIGZsciwgRWRtb250b24sIEFCIFQ1UCAyUDcsIENhbmFkYSIjGiEKFgoUChIJq6rqMQkhoFMR8W5WIHal0RwSBzJuZCBmbHI,53.54024,-113.58968
2299,ChIJc9C3HaqPn1MRse7JKKfTHvA,53.5588409,-113.9371017
2300,ChIJTXC6k0RrcVMROdR83zC62So,51.0831361,-114.3481943
2301,Eik1MzA3IDUzIEF2ZSwgQmFycmhlYWQsIEFCIFQ3TiAxRTQsIENhbmFkYSIxEi8KFAoSCcl1uosXXJ9TEZeZ9Tu-UEWiELspKhQKEgnfCe4XGFyfUxGH3M02jXzRGw,54.123172,-114.4099556
2303,Eik1MTAzIDUzIEF2ZSwgQmFycmhlYWQsIEFCIFQ3TiAxTjksIENhbmFkYSIxEi8KFAoSCeX9CJcXXJ9TEfLRVwR0sakUEO8nKhQKEgnfCe4XGFyfUxGH3M02jXzRGw,54.123165,-114.411654
2305,ChIJs-EEqMjQoVMRhixRRfphvEk,53.949036,-113.892749
2306,ChIJgbnbc0VNn1MRiCZ7bApCYuA,54.33399799999999,-114.769976
2311,ChIJqaxEksH9oVMREKy8UqNsD-s,54.3189404,-114.3786318
2316,ChIJGcrSohhcn1MRRlcPSAkE8t8,54.1237891,-114.402397
2317,ChIJveh4HfZwcVMR_WO27C4h9N4,51.00101799999999,-114.0579766
2318,ChIJfwWfeSpucVMR8ZoeULBAc_k,51.0325327,-114.1174805
2319,ChIJfwaKXyNncVMRhZSehTornPw,51.186468,-114.0658337
2320,EjI0MDAgUHJpbmNlIG9mIFBlYWNlIFd5LCBSb2NreSBWaWV3LCBBQiBUMVgsIENhbmFkYSIxEi8KFAoSCcVp8YHAfHFTEQUFxxfNRXrFEJADKhQKEgmloqikv3xxUxHzyWap9RaD4w,51.062044,-113.8917017
2321,ChIJQbqV3SJpcVMR9hK7DFc4tlg,51.12080599999999,-114.2088644
2322,ChIJsY_OEmMinFMR7P4VHPT9Pu0,53.5790281,-116.4377607
2323,ChIJ4688BJdjcVMRjs2uvn5D0f4,51.12590890000001,-113.9528402
2325,EjY0MDM5IEJyZW50d29vZCBSZCBOVyAjMjYwLCBDYWxnYXJ5LCBBQiBUMkwgMUwxLCBDYW5hZGEiHxodChYKFAoSCWNOzpsTb3FTEfHWfouT2F8uEgMyNjA,51.0887883,-114.1333334
2326,ChIJS3oPRaeLn1MRM8S_kyAN5F8,53.4999493,-113.7567853
2327,ChIJ2WrMN9MDDUsRpY9Doiq3aJk,56.130366,-106.346771
2328,ChIJ4wKWC9p3cVMRQ0HHNGILD1M,50.89485,-113.96947
2329,ChIJleMCxgdfcVMRPXiLlcaShtY,51.2749411,-114.0317842
2330,ChIJXf0EVzsjoFMRtQ6AQeExpbc,53.5760072,-113.4485556
2332,ChIJy_cGBMqHblMRRnE3oMiKPqU,49.6965049,-112.828191
2333,ChIJL-fyePo1bFMRJSwdN8aTjl4,49.7967384,-112.1536099
2334,ChIJG7xNUXmGblMRrT4cQjyruuQ,49.66430140000001,-112.7756292
2335,ChIJ2W92ciSTmFMRqBq9REimfHk,54.7166671,-115.4027753
2336,ChIJ36tTxqJxcVMR3HuketCU8Ac,50.9990894,-114.1147758
2337,ChIJuV0MukpYllMRIM6VQ449auY,56.1880345,-117.6097511
2338,ChIJN_4Hx3x7cVMR5EATe5whm6Y,51.0409356,-114.0302565
2339,ChIJv_dmP4RkcVMRlWhm41o-YP0,51.1015617,-113.9729762
2341,ChIJ0a4qcXCyCVMR3dQc9QqN7gQ,53.2708109,-110.0426354
2343,ChIJjXUmsCFxcVMRB9FRO3yzEEU,50.9753538,-114.0651153
2344,ChIJv3-nfW9lcVMR3KmYrbOmD4U,51.0744495,-114.0611056
2345,ChIJEa_QCBlrmFMRaSxcfd_eAhY,55.3532899,-115.7922158
2346,ChIJsxZOnVKDwFMRCY5i1VUSNdo,58.50706229999999,-117.140307
2347,ChIJjSRjmpCyCVMRk53-dbtusNU,53.2795388,-110.0074818
2348,ChIJu00EiVJ_p1MRVS9Zft6CV7A,53.84722679999999,-110.4331246
2349,EjIxMDgwMCBSYWluYm93IEJsdmQsIEhpZ2ggTGV2ZWwsIEFCIFQwSCAxWjAsIENhbmFkYSIxEi8KFAoSCUFy8UtEg8BTEed7g9qVqlkzELBUKhQKEgndWEh4RIPAUxEh8wijDwif2g,58.51102729999999,-117.1355833
2350,ChIJCx8IzzKob1MRxYe5aRT99jA,49.55174599999999,-113.75093
2351,ChIJ5UjdQm33l1MRPFyi8Cu0vOA,55.52322299999999,-116.159278
2352,ChIJ64KAJQ7Xo1MRAh_ZSAYhR1s,54.716549,-113.2824395
2353,Eic1MDI4IDQ5IFN0LCBHaWJib25zLCBBQiBUMEEgMU4wLCBDYW5hZGEiMRIvChQKEgkdlBiyGkqgUxHuc8mqh_l1WxCkJyoUChIJBZMZXgRKoFMRfMky2xF971o,53.8292083,-113.3275015
2354,ChIJXW_nRUsuoFMRzlZj-iWfmi4,53.7177056,-113.5965584
2355,ChIJvdijfgdncVMRzecDRdzrtj4,51.17693999999999,-114.10104
2356,ChIJwUtkwH7ln1MRHsiJlQniDcU,53.2650494,-113.8055076
2357,ChIJXUHGej9xcVMRNWSKtBnxlLo,50.9688719,-114.0885296
2358,ChIJk6xtY07_c1MRIvC9zUFKudw,52.02763359999999,-113.948677
2359,Ei40MTIwIENlbnRyZSBTdCBORSwgQ2FsZ2FyeSwgQUIgVDJLIDFDNCwgQ2FuYWRhIjESLwoUChIJh4RNrcVlcVMRx8ntjBLVG6wQmCAqFAoSCTMF_3i4ZXFTEdpHB0FI3mI4,51.1172098,-114.0691332
2360,ChIJ10_WDeQeoFMRba4rpgNprPc,53.5537789,-113.5090621
2361,ChIJxQDTAKYjoFMRuFdYAyrFsPg,53.56676789999999,-113.4968428
2364,ChIJyzNDvG9pcVMROYHQUzT5Pbg,51.1239965,-114.2470863
2365,ChIJNxqMQoFTvFMRzzWH2rOqJeg,56.54698399999999,-115.256549
2366,Ei8yODI3IDMwIEF2ZSAjMjEyNSwgUmVkIERlZXIsIEFCIFQ0UiAyUDcsIENhbmFkYSIgGh4KFgoUChIJGZymeV5WdFMRIOgntj4VRgISBDIxMjU,52.2454289,-113.7650008
2367,ChIJQR5faoUZoFMRO-dEoSZudUE,53.45318899999999,-113.3679673
2368,Ejc1MTcgS2V0dGxlcyBTdCAjMjM3MSwgUGluY2hlciBDcmVlaywgQUIgVDBLIDFXMCwgQ2FuYWRhIiAaHgoWChQKEgmfCJCKfApvUxHhoRgYyaSsBRIEMjM3MQ,49.48537,-113.95716
2369,ChIJx36dRAwZoFMRekLP8KdSar4,53.4621476,-113.4049489
2370,ChIJAQBAIJVfcVMR7dbihGa2P1Y,51.260127,-113.9942357
2371,ChIJUXKn28yZcVMRlN1lhDXicTk,50.7251246,-113.9720028
2372,ChIJLT8kO01ocVMRvtcjk4VRhlI,51.1594913,-114.2264654
2373,EjIxMDEgUGFsbGlzZXIgVHJhaWwgIzY3MCwgSGFubmEsIEFCIFQwSiAxUDAsIENhbmFkYSIfGh0KFgoUChIJqdiOP13KDFMRFhMNfhxlCuESAzY3MA,51.63652,-111.94247
2374,ChIJIw3p1lZocVMRtlIDfsOdBSM,51.1507124,-114.2076048
2375,Ei42MjUgNCBBdmUgTkUgIzEwNCwgQ2FsZ2FyeSwgQUIgVDJFIDBKOSwgQ2FuYWRhIjoaOAoxEi8KFAoSCdEbH-lQZXFTEQgFYchGWhfZEPEEKhQKEgmzWDZNUGVxUxHWwyPLN0sbrxIDMTA0,51.0558177,-114.0510566
2376,ChIJkxJF1jGGblMRpTAZ41sFvQY,49.6828906,-112.8326812
2378,ChIJy-I5HkCVcVMRqR41RqlwnLM,50.5774143,-113.877125
2379,ChIJjXTW5sEcoFMRpJGGGWttcHg,53.3630377,-113.4231627
2380,ChIJZ4xAZoxwcVMRI959HsEtCFY,50.9983155,-114.0398716
2381,ChIJJ4guNJNFllMRK7wubKD3fW8,56.2555554,-117.2921451
2382,ChIJj_YJdpY8oFMRUSgx33VPNb0,53.6021888,-113.4031553
2383,ChIJwT1wxdgYoFMRcLL0oRysOeg,53.47370799999999,-113.451391
2384,ChIJEaIiK-cjoFMRloIMRjoMM-Q,53.5674559,-113.5541407
2385,ChIJ9bj2Ck8ioFMRZWMrR9wsv3Y,53.54661249999999,-113.4890728
2386,ChIJGcvI6bPLp1MR35vT1LFGaQg,54.4406776,-110.1876973
2387,ChIJL7TM6KCab1MRJXE87Vgmh5Y,49.5752499,-114.35988
2388,ChIJWTg0JvcIsFMRL8tIVelXeKQ,56.727934,-111.448266
2389,ChIJYT8BeFEsE1MRVAW76GDPSsI,50.03489620000001,-110.6697849
2390,ChIJzfZ0ykj8oVMR8CYprRnKjZk,54.3197155,-114.3259491
2391,ChIJXZttemcsE1MRcCrsSKCXHq0,50.0501091,-110.6814967
2392,Ei5Gb3J0IE1jS2F5IFJkLCBGb3J0IE1hY2theSwgQUIgVDBQIDFDMCwgQ2FuYWRhIi4qLAoUChIJLTOSu-GHsFMRjtwSkCL6l0ISFAoSCXOu8lUmfbBTEdTByoa3ihAG,57.1858378,-111.6365038
2393,ChIJVeSEThw5p1MR0mdbk6cXvY0,53.9886958,-111.2773713
2394,ChIJP-4lOZuOnFMRy_ILEwJUY9U,53.424479,-117.542202
2395,ChIJ2WrMN9MDDUsRpY9Doiq3aJk,56.130366,-106.346771
2396,ChIJ2WrMN9MDDUsRpY9Doiq3aJk,56.130366,-106.346771
2397,ChIJ2WrMN9MDDUsRpY9Doiq3aJk,56.130366,-106.346771
2398,ChIJ2WrMN9MDDUsRpY9Doiq3aJk,56.130366,-106.346771
2399,ChIJndxNpsoXoFMR4NIvJJbV51U,53.5255388,-113.3007542
2400,ChIJ2WrMN9MDDUsRpY9Doiq3aJk,56.130366,-106.346771
2401,ChIJs-EEqMjQoVMRhixRRfphvEk,53.949036,-113.892749
2402,ChIJW1DX7V-_oVMRHFJwjAf4vLI,54.1485607,-113.6357425
2403,ChIJGcrSohhcn1MRRlcPSAkE8t8,54.1237891,-114.402397
2408,ChIJ2WrMN9MDDUsRpY9Doiq3aJk,56.130366,-106.346771
2409,ChIJ2WrMN9MDDUsRpY9Doiq3aJk,56.130366,-106.346771
2410,ChIJF5u0M6RucVMRDvl-5bio5nE,51.0842414,-114.2206629
2411,ChIJuyvz8mXCoVMRcbxcndo93I8,54.15356389999999,-113.8565881
2413,ChIJ1QQrgG3CoVMRa65d0C8g_-8,54.15991349999999,-113.8464548
2415,ChIJPw04LnryoVMRi5TLT5v_V7s,54.34999999999999,-113.916667
2416,ChIJm9rrE2XCoVMRJybsQKVBR_A,54.1557127,-113.8604044
2418,ChIJ2WrMN9MDDUsRpY9Doiq3aJk,56.130366,-106.346771
2419,ChIJfR6icxdfcVMRNDaIEl1mGeE,51.2896414,-114.0413333
2420,EjoxMjIyIEtlbnNpbmd0b24gQ2xvc2UgTlcgIzMwMSwgQ2FsZ2FyeSwgQUIgVDJOIDNKNywgQ2FuYWRhIh8aHQoWChQKEgl5o4W06W9xUxHDz40z09QHwhIDMzAx,51.0519663,-114.0915325
2421,ChIJmY1L7DVYllMRXEzOfdzC9yk,56.1852131,-117.6135772
2422,ChIJZV3OtQJucVMR9AXiP4JGTdo,51.024515,-114.158736
2423,ChIJc_d6-aaLn1MRYjkU2vTGedc,53.50322999999999,-113.75634
2424,EjIxMDQwMyAxNDUgU3QgTlcgIzE3MCwgRWRtb250b24sIEFCIFQ1TiAyWDksIENhbmFkYSIfGh0KFgoUChIJrYIsDXEhoFMROsE2MbDJeS4SAzE3MA,53.54657359999999,-113.5706666
2425,ChIJ-12zvot3cVMRGpPFLbaxs3o,50.90236489999999,-113.9266751
2426,ChIJZxo06mCdcVMRxLuU2QWkabc,50.888352,-113.9479534
2427,EjAxNSBBdWJ1cm4gQ3Jlc3QgUGFyayBTRSwgQ2FsZ2FyeSwgQUIgVDNNLCBDYW5hZGEiMBIuChQKEgmpMmvJYJ1xUxHZ8J2qOQYfixAPKhQKEgkttobFYJ1xUxG1Cuqr7kV0NA,50.8875179,-113.947385
2428,ChIJU-wSlnthcVMRdBhsGE7jKd4,51.16084009999999,-113.9556747
2429,ChIJN4QVE1FlcVMROMKsOrKymks,51.0543109,-114.0487033
2431,ChIJ2WrMN9MDDUsRpY9Doiq3aJk,56.130366,-106.346771
2432,ChIJ2WrMN9MDDUsRpY9Doiq3aJk,56.130366,-106.346771
2433,ChIJy-HZtrD1n1MRiVrosz4mokA,53.41664,-113.63567
2434,ChIJTTppRMaRn1MRnKANotVIL8o,53.524093,-114.010968
2435,EjAxMTQwIEtlc3dpY2sgRHIgU1csIEVkbW9udG9uLCBBQiBUNlcgMUE2LCBDYW5hZGEiMRIvChQKEgmZTAysv_WfUxHFKVgeMI1wpxD0CCoUChIJm5inxr31n1MRbhMA-og9Ms0,53.41675859999999,-113.6189329
2436,ChIJ2WrMN9MDDUsRpY9Doiq3aJk,56.130366,-106.346771
2437,EjQ2MjAxIFRhbWFyYWNrIERyLCBHcmFuZGUgUHJhaXJpZSwgQUIgVDhXIDBINCwgQ2FuYWRhIjESLwoUChIJUeXz_qqRkFMR0LktGX3N6n0QuTAqFAoSCU9KLjeqkZBTETFbh6i1EZlp,55.1344003,-118.8338926
2438,ChIJf1bAN74_cVMRmD_mgdgU5Wg,51.15569,-114.47875
2439,ChIJmcwaJ1QhoFMR0r71hMS7nag,53.5770518,-113.5785761
2440,ChIJ2WrMN9MDDUsRpY9Doiq3aJk,56.130366,-106.346771
2441,Eiw1MzM1IDUwIEF2ZSAjMTMwLCBIb2xkZW4sIEFCIFQwQiAyQzAsIENhbmFkYSIfGh0KFgoUChIJhbI7h_KHClMR61r7A6CKSeYSAzEzMA,53.234157,-112.244472
2442,ChIJWdXn5doloFMRxIaSDmnuteA,53.63568009999999,-113.6102749
2443,ChIJo_7BITGfClMRssZ8b3weiCo,53.213152,-112.749377
2444,ChIJs_pJi-ZVdFMRkYyPqNky9sg,52.27929,-113.76101
2445,ChIJOXA_-aB9cVMRwt-EjybCc5o,51.0514714,-113.8140965
2446,ChIJ1ypE-kdUdFMRdCQcfcLh66Q,52.2803853,-113.8250027
2447,ChIJ1ypE-kdUdFMRdCQcfcLh66Q,52.2803853,-113.8250027
2448,ChIJfwWfeSpucVMR8ZoeULBAc_k,51.0325327,-114.1174805
2449,ChIJq6rq7Q1vcVMRkM03dMexWbY,51.0840347,-114.1307202
2450,ChIJ2WrMN9MDDUsRpY9Doiq3aJk,56.130366,-106.346771
2451,Eio1MTA5IDQ2IFN0ICMxODAsIExlZ2FsLCBBQiBUMEcgMUwwLCBDYW5hZGEiHxodChYKFAoSCSk_U0dYyaFTEUZilcQAtdbeEgMxODA,53.9503374,-113.5883546
2452,ChIJi2bWrJljcVMR6LAKkersFrE,51.12215339999999,-113.9489041
2453,ChIJDf_CYmc_cVMRcrCkNkdaiFI,51.1944339,-114.4889682
2454,EjIxMDgwMCBSYWluYm93IEJsdmQsIEhpZ2ggTGV2ZWwsIEFCIFQwSCAxWjAsIENhbmFkYSIxEi8KFAoSCUFy8UtEg8BTEed7g9qVqlkzELBUKhQKEgndWEh4RIPAUxEh8wijDwif2g,58.51102729999999,-117.1355833
2456,EjA5IEVtYmVyc2lkZSBHYXJkZW4sIENvY2hyYW5lLCBBQiBUNEMgMkEzLCBDYW5hZGEiMBIuChQKEgn7dpyMvT9xUxFTphQ9YSmMiRAJKhQKEgnhUAzAvT9xUxFWVqpfhqk5VQ,51.1591269,-114.4803315
2458,ChIJN-8wAuZwcVMRbct-kdOSVro,50.9859281,-114.0519997
2460,ChIJcSLLo1czE1MR00PAQ1AmXQc,49.99216,-110.63994
2466,ChIJ2WrMN9MDDUsRpY9Doiq3aJk,56.130366,-106.346771
2468,ChIJ3Z7RkNUYoFMR4AZtWEXXAC8,53.4692346,-113.4682237
2469,ChIJl-k8okxfp1MRikOflXPjEcA,53.6547187,-110.9668813
2470,ChIJefuFy8ckoFMRca3oM39cpYk,53.6272053,-113.4873357
2471,ChIJkQzQuWbCoVMRsSwKG-p1pSM,54.1502217,-113.8607261
2472,ChIJL78ihLwacVMRTZmJhtJiUhY,50.95174,-114.5692339
2501,ChIJgyTLFLI1oFMRAHb7O-qlhGI,53.83661790000001,-113.4137638
2502,ChIJj_rGEeYroFMR58A_D-AFMEs,53.7848304,-113.8431379
2504,Ei00OTA4IDUxIEF2ZSAjODQwLCBHaWJib25zLCBBQiBUMEEgMU4wLCBDYW5hZGEiHxodChYKFAoSCd_wMp4aSqBTEZh4XcRpA5LHEgM4NDA,53.8299657,-113.3253366
2506,ChIJ66PhEx0moFMRENwaR6cCg2M,53.6544597,-113.6654713
2507,ChIJXW_nRUsuoFMRzlZj-iWfmi4,53.7177056,-113.5965584
2508,EiY1NjQyMiBId3kgMiwgTGVnYWwsIEFCIFQwRyAxTDAsIENhbmFkYSIyEjAKFAoSCfcNn74RzaFTEYJ-zfWs-LMoEOa4AyoUChIJjyCx256JnVMRxy_KcGvCPoM,53.87059499999999,-113.6440709
2509,Ejc1NjExOSBSYW5nZSBSZCAyNDAgIzQ4OCwgQm9uIEFjY29yZCwgQUIgVDBBIDBLMCwgQ2FuYWRhIh8aHQoWChQKEglrOHNISzSgUxErIuYWQOTWRBIDNDg4,53.8269333,-113.4213028
2510,ChIJXW_nRUsuoFMRzlZj-iWfmi4,53.7177056,-113.5965584
2512,Ei41MzAxIDM3IEF2ZSAjMTA1MCwgR2liYm9ucywgQUIgVDBBIDFOMCwgQ2FuYWRhIiAaHgoWChQKEgm_dKydATagUxG2fkvF7whM5RIEMTA1MA,53.8118344,-113.3355005
2513,EjQ1MDI0IE9jaHJlIFBhcmsgUmQgIzMwLCBSZWR3YXRlciwgQUIgVDBBIDJXMCwgQ2FuYWRhIh4aHAoWChQKEgkZHUR9Uq2hUxE8LKpnHZ_vqRICMzA,53.9523229,-113.1360054
2514,EjA0NTA5IDU0IEF2ZSAjNjg5LCBCb24gQWNjb3JkLCBBQiBUMEEgMEswLCBDYW5hZGEiHxodChYKFAoSCeM0ADqjNaBTEeLj35aGefR2EgM2ODk,53.83871,-113.3997716
2516,Eic1MDI4IDQ5IFN0LCBHaWJib25zLCBBQiBUMEEgMU4wLCBDYW5hZGEiMRIvChQKEgkdlBiyGkqgUxHuc8mqh_l1WxCkJyoUChIJBZMZXgRKoFMRfMky2xF971o,53.8292083,-113.3275015
2535,ChIJeU1HSFbJoVMRX4uGyefCfy8,53.9489734,-113.5952301
2536,Eik1MjA0IDQ2IFN0ICMyOCwgTGVnYWwsIEFCIFQwRyAxTDAsIENhbmFkYSI5GjcKMRIvChQKEgmbzt81WMmhUxEm-c9AS8geWxDUKCoUChIJwTFoN1jJoVMRFT42pBGA00kSAjI4,53.9512827,-113.5900695
2537,ChIJxVJ3OY4moFMRbO1B46PuaVY,53.6083406,-113.626147
2538,ChIJ5UyYSZlWdFMRP47CEcvQtXE,52.2542762,-113.8114324
2539,ChIJfUhmMEyGblMRJQM6NZIg7FQ,49.6905018,-112.8108268
2540,ChIJYaIcctEloFMR6lmQkt1MgMw,53.62942200000001,-113.60728
2541,ChIJJ2xQotAloFMRIIyJH50xRP8,53.6325932,-113.611748
2542,ChIJuc9pBNsloFMRs8yqs-Tsaa4,53.6364275,-113.6118488
2543,ChIJLQIzyn0moFMRU_yssQGU2_o,53.62151009999999,-113.6247391
2545,ChIJAQBAodoloFMRDCohMAEwGfE,53.6342318,-113.6077632
2546,ChIJ1Q6eYwwmoFMRRGchBAvW8is,53.6410863,-113.6419222
2550,ChIJPcFelQgmoFMRUoLqSxDddi8,53.6479343,-113.6443443
2551,ChIJLdUIpmMmoFMRvCGX8JeBMpw,53.6202339,-113.6361542
2552,ChIJMwwtEcoloFMRRehH5TFf0Mw,53.6316822,-113.5864605
2554,ChIJu1Q5jeoloFMRBQ49UoS8N9M,53.64778459999999,-113.6029704
2555,ChIJJ2xQotAloFMRIIyJH50xRP8,53.6325932,-113.611748
2556,ChIJ64TS6xomoFMR1BX4wPaWiic,53.6481414,-113.6592263
2557,ChIJPR4JBQEmoFMRAaqBUByFmSU,53.6560742,-113.6500297
2558,ChIJWdXn5doloFMRxIaSDmnuteA,53.63568009999999,-113.6102749
2559,ChIJWdXn5doloFMRxIaSDmnuteA,53.63568009999999,-113.6102749
2560,ChIJ64TS6xomoFMR1BX4wPaWiic,53.6481414,-113.6592263
2571,ChIJq6pqdIEtoFMR4BGKcyGD5r0,53.7986101,-113.6312584
2572,ChIJq1rfFYIyoFMRezCs6PtuhiU,53.8083897,-113.6300859
2574,ChIJFQJdVHQmoFMRxoH2uAK4BBY,53.6371583,-113.6326107
2575,ChIJdw0LIIgmoFMRmTNth0uZ-fs,53.6174378,-113.6315166
2577,ChIJ5ciGZHMmoFMRwGJCUrCCWJ4,53.6368747,-113.637616
2578,ChIJfzOAYdYloFMRTmXl37beUvc,53.6278789,-113.6145105
2579,ChIJQ5ugvXQmoFMRjlHMPT01CNA,53.63809269999999,-113.6365076
2580,ChIJhdv_HgkmoFMRsXhs_J7NLBk,53.6463305,-113.6425768
2582,ChIJkaNx1nUmoFMRzAHZshWkTUk,53.6353575,-113.6300706
2584,ChIJLZErguoloFMRTQbSUImwyYU,53.64657460000001,-113.6027526
2587,ChIJDwDhz8YloFMRAfBdalE_MPo,53.640907,-113.598919
2588,ChIJOy4A08AloFMR8gNzHXcqvyE,53.6420622,-113.5977336
2589,ChIJmSm4xcQloFMRKT3WyDU46Ko,53.6378143,-113.6077812
2591,ChIJW_vo3nYtoFMRtje3Ac-dDq4,53.8019877,-113.6504351
2593,ChIJW_vo3nYtoFMRPKXL65mZdwk,53.8019877,-113.6504351
2594,ChIJD2mvKH8toFMRtiPi1uacwi8,53.8027869,-113.6362666
2601,ChIJQZKMLeLWo1MRyTf9fvkH18E,54.7172444,-113.3141202
2602,ChIJJ2HGARvXo1MRHm8oxmFt7-8,54.71763989999999,-113.2948742
2604,ChIJ35PGvV9doVMRoIyOHlahZ6g,54.58734250000001,-112.8033552
2605,ChIJd29fXSjjo1MR1qbPApdqV9U,54.8203146,-112.684927
2608,ChIJFzcbNUuaoVMR3KqK6RJF6CI,54.370912,-113.455132
2609,ChIJnfIBlaxTolMRPv8rnaxAbOc,55.163056,-114.0382
2610,ChIJJ2HGARvXo1MRHm8oxmFt7-8,54.71763989999999,-113.2948742
2611,EjczMDAxIFdoaXNwZXJpbmcgSGlsbHMgRHIsIEF0aGFiYXNjYSwgQUIgVDlTIDBBNSwgQ2FuYWRhIjESLwoUChIJiSnBZHfXo1MRXy1xwozJUO4QuRcqFAoSCfk9tmZ316NTEVQTqZ41xfda,54.7153077,-113.249377
2623,Ei41MDIzIDUwIEF2ZSAjNzkwLCBSZWR3YXRlciwgQUIgVDBBIDJXMCwgQ2FuYWRhIjoaOAoxEi8KFAoSCY-L8V_KUqBTEdDfC65Jh_3SEJ8nKhQKEgl5e7IKy1KgUxEmbtGdmozuGhIDNzkw,53.9509471,-113.1125703
2624,ChIJYQ5P-jmmoVMRoDp3smggAdk,54.15325499999999,-113.125807
2701,Ei04IENhc2xhbiBDcmVzY2VudCwgQ2FzbGFuLCBBQiBUMEEgMFIwLCBDYW5hZGEiMBIuChQKEgm5ybT8GFChUxHGccLmBxptnBAIKhQKEgm5ybT8GFChUxF03m79PMz-OA,54.6367145,-112.5056005
2702,ChIJKWSoUQSlplMRfBpWkL4ICyI,54.77420859999999,-111.9661447
2704,ChIJKWSoUQSlplMRfBpWkL4ICyI,54.77420859999999,-111.9661447
2706,ChIJHR3_NysApFMRF8s9DcOuF6I,54.8492454,-112.3444797
2708,ChIJ8S8gLslypFMRI0SozR57TWg,55.201392,-112.465214
2716,ChIJKWSoUQSlplMRfBpWkL4ICyI,54.77420859999999,-111.9661447
2717,ChIJ8UqWS6M0oVMR1lDIzF1S9h4,54.44203,-112.097578
2718,ChIJHR3_NysApFMRF8s9DcOuF6I,54.8492454,-112.3444797
2719,EjQxMDIyMCA5OSBBdmUgIzE4NTksIExhYyBsYSBCaWNoZSwgQUIgVDBBIDJDMiwgQ2FuYWRhIiAaHgoWChQKEgmRWILiBKWmUxF_ioBeHQRjoxIEMTg1OQ,54.76653,-111.97986
2720,ChIJyWlyiIEHp1MRG32LfReqSSI,54.2686094,-110.7385026
2722,ChIJk_6XbVMeoVMR1U3AjgcwsNA,54.1150274,-112.4684574
2724,ChIJhYEQ4RnUoFMRcct99k-y7Ag,54.1165058,-111.9213123
2726,ChIJ7eHiSB_Kp1MRlwi0eJy1Xrw,54.412973,-110.220778
2727,ChIJk_6XbVMeoVMR1U3AjgcwsNA,54.1150274,-112.4684574
2790,ChIJ3dhwyr7TplMRTt0oev68-JI,54.3,-111.833333
2791,ChIJlYTO3_fOoFMRpaaQdSYUENY,53.964882,-111.774996
2793,ChIJKWSoUQSlplMRfBpWkL4ICyI,54.77420859999999,-111.9661447
2794,ChIJlYTO3_fOoFMRpaaQdSYUENY,53.964882,-111.774996
2795,ChIJKWSoUQSlplMRfBpWkL4ICyI,54.77420859999999,-111.9661447
2797,ChIJlYTO3_fOoFMRpaaQdSYUENY,53.964882,-111.774996
2800,ChIJJxHmzBovp1MRyLJviZJN3eI,54.12905,-111.568986
2801,ChIJJxHmzBovp1MRyLJviZJN3eI,54.12905,-111.568986
2802,ChIJa5Z1GDlpp1MRtJLsPjGqYPk,53.901093,-110.896432
2803,ChIJa5Z1GDlpp1MRtJLsPjGqYPk,53.901093,-110.896432
2804,ChIJ27Bz_Ed8p1MRv3o-pbWQI9M,53.770072,-110.527841
2806,ChIJI8reKXohp1MRwJiLk1oRFQo,54.209497,-111.365633
2808,ChIJVeSEThw5p1MR0mdbk6cXvY0,53.9886958,-111.2773713
2809,ChIJ7xiLIH-woFMRySfstg8rK5E,53.7103441,-111.7461105
2820,ChIJVeSEThw5p1MR0mdbk6cXvY0,53.9886958,-111.2773713
2835,ChIJ0fNMJd44p1MRnasjl-e6gww,53.9867441,-111.2740818
2871,ChIJVeSEThw5p1MR0mdbk6cXvY0,53.9886958,-111.2773713
2872,ChIJVeSEThw5p1MR0mdbk6cXvY0,53.9886958,-111.2773713
2876,ChIJ-Q1U0CSop1MRQglabcCdlso,54.2615048,-110.7064207
2891,ChIJu00EiVJ_p1MRVS9Zft6CV7A,53.84722679999999,-110.4331246
2892,ChIJ9X7Zbh05p1MRjc0ar887keo,53.9914718,-111.2971454
2901,ChIJ8ZFZ2duxp1MR-sP9fk6L9Sc,54.33146199999999,-110.480273
2902,ChIJZ3XprJ7Lp1MRlTLyh7O4azA,54.4566394,-110.1705165
2903,ChIJk2DX0YEHp1MRShzg5CkeR1Y,54.2702854,-110.734879
2905,ChIJ_8A6QQIcp1MRBm_m8J822sg,54.2513284,-111.1538702
2906,Eio3ODI1IDUxIFN0ICMxMDMsIENvbGQgTGFrZSwgQUIgVDlNLCBDYW5hZGEiHxodChYKFAoSCVc9iTasy6dTEaChuxvktg8jEgMxMDM,54.4485847,-110.2027285
2907,ChIJu4v19SHKp1MR6o34kOWtj7s,54.4141129,-110.2178811
2908,ChIJefYjEWP_plMRP98VQ7ONt0c,54.45,-110.916667
2909,ChIJqRTBZB_Kp1MRk8JcrC7dKpw,54.41157579999999,-110.2186274
2911,ChIJGawDcSaop1MRS9Q9xqpHxfo,54.261351,-110.715403
2912,ChIJ9_7jTwzLp1MR0SNcxcN17iM,54.466268,-110.192723
2950,ChIJyWlyiIEHp1MRKgvZAHhVcvo,54.2686094,-110.7385026
2970,ChIJf6R3X53Lp1MR_tcCeKPIKaQ,54.4622964,-110.166958
2971,ChIJYSIPwiDKp1MRsLDnnIAzqLg,54.41133660000001,-110.21028
2973,ChIJyWlyiIEHp1MRqjs-WuXTPvc,54.2686094,-110.7385026
2974,ChIJY5-DM4EHp1MRYeNqPXLDmO4,54.2657499,-110.7340617
2976,ChIJm61aLySop1MR1J2y8lzorGI,54.2600979,-110.7128188
2985,ChIJL-NpKUvKp1MRWqn1WIE1_1U,54.437093,-110.20163
2986,ChIJHWLc8aPLp1MRewbOxP8fQkc,54.46376369999999,-110.1733994
2989,ChIJRWndttENp1MR5iiZL1LG5GU,54.12275349999999,-110.8069613
2990,ChIJHwwItybKp1MRTstS-qKCf5s,54.4137858,-110.2100375
2994,ChIJF7kSWi_Kp1MRETO73vyHliI,54.417345,-110.2032305
3000,Ei41MjA0IDUwIEF2ZSAjMTAyLCBCZWF1bW9udCwgQUIgVDRYIDFFMywgQ2FuYWRhIh8aHQoWChQKEgklWPKIxRygUxFICTm4FmUYERIDMTAy,53.3528896,-113.4195316
3101,ChIJs_s_C133dVMRSgOSKGbXIKo,52.9312619,-114.941364
3102,ChIJtchmxySKdVMRjcc1KHbQn9A,52.9526231,-114.7954031
3103,ChIJaWDLZUdOdVMR6rQlJroDZ1w,52.96428299999999,-113.367128
3104,ChIJ-QWxcndodVMRpbyS3i49H7w,52.959787,-113.825281
3105,ChIJ-QWxcndodVMRpbyS3i49H7w,52.959787,-113.825281
3106,ChIJ0SH1li1NdVMR5yvfT9Dx540,52.98707599999999,-113.197554
3107,ChIJ670RqRNjdVMRWW3_zJ7l3rc,52.9674859,-114.0164816
3109,EhZId3kgMiwgQWxiZXJ0YSwgQ2FuYWRhIi4qLAoUChIJjyCx256JnVMRxy_KcGvCPoMSFAoSCatm7__qVnVTEQTdkz8p_uyJ,52.3251528,-113.8609792
3111,ChIJHX7unJIqnlMRFonJRWJdwn0,52.963515,-114.412612
3112,ChIJq2bv_-pWdVMRBN2TPyn-7Ik,53.09068689999999,-113.4694521
3113,ChIJv-ClwThOdVMRdAJxF_LAkSg,52.96592709999999,-113.3669435
3114,ChIJPwgnIcBjdVMRC6GcWnsZQNU,52.9735756,-113.9636431
3142,ChIJezScjTVOdVMR8VXDqsCb360,52.9620563,-113.3834213
3143,ChIJLx0HTjdOdVMRbHmN20uAdNk,52.9678221,-113.3778805
3144,ChIJJ04GID9OdVMRszCkmChoI3k,52.9679614,-113.3652522
3145,ChIJK9qqaSVOdVMRJeOGt3fQM4s,52.9748019,-113.381397
3146,ChIJ1fkXlxZOdVMR5P2MRgMaFb0,52.9734861,-113.3565938
3148,ChIJv-ClwThOdVMRdAJxF_LAkSg,52.96592709999999,-113.3669435
3170,ChIJIyw9kBVOdVMRSSg8RhKkAKQ,52.97018019999999,-113.3588409
3192,ChIJl6OYAjpOdVMRN05uiUxmam0,52.9687275,-113.3760856
3193,EhlId3kgMiwgUG9ub2thLCBBQiwgQ2FuYWRhIi4qLAoUChIJjyCx256JnVMRxy_KcGvCPoMSFAoSCQdG434sFHVTEeu52GMvm2qH,52.6864482,-113.646171
3194,ChIJSZ8mlzFOdVMRnzPgaqlg59Y,52.97024500000001,-113.3860752
3201,ChIJY0qocM8coFMRU9gSQQKaGBU,53.3519279,-113.4191009
3202,ChIJnXQ6X5_Sn1MRC3hnnwTaGVw,53.110032,-114.4719526
3203,ChIJnXQ6X5_Sn1MRC3hnnwTaGVw,53.110032,-114.4719526
3204,ChIJ8aYCmsccoFMRyai67isof_M,53.3564872,-113.4125654
3206,ChIJwUtkwH7ln1MRHsiJlQniDcU,53.2650494,-113.8055076
3210,ChIJO2MItD75n1MRf-lSbY742K8,53.2449895,-113.525902
3211,ChIJ2WBN8Gv5n1MR-72rcezXl98,53.2511561,-113.5471769
3212,ChIJB5TThm35n1MR1rar3ohhjzw,53.25672470000001,-113.5500168
3213,ChIJ2_rotXL5n1MRRAR0NYo0lHU,53.258634,-113.5472346
3214,ChIJBWkbrwn5n1MR-vOP8IU9SII,53.2601508,-113.5398428
3215,ChIJfwmiv3P5n1MRKl8JrbcQgBo,53.2601525,-113.5544775
3217,ChIJ07CBzJ_5n1MRjocmXwtFeAs,53.2675142,-113.5581401
3220,ChIJuVMziIIIoFMRe5ap1sZNkt8,53.2723757,-113.147222
3221,Eh81MDUxIEh3eSAyLCBCYWJiLCBNVCA1OTQxMSwgVVNBIjESLwoUChIJpam3_zcyb1MRC9MBtgoRaZEQuycqFAoSCY8gsdueiZ1TEccvynBrwj6D,48.9963614,-113.3793987
3222,ChIJ5xEDj7jCn1MRqHh-y05uub4,53.2272392,-114.0479897
3223,ChIJ5xEDj7jCn1MRqHh-y05uub4,53.2272392,-114.0479897
3224,ChIJ75YjycscoFMRna3-QvFKX4A,53.3483272,-113.4071871
3226,ChIJnR4iMLrPn1MRSE8YTRZ3NJA,53.1838616,-114.3186127
3228,ChIJnR4iMLrPn1MRSE8YTRZ3NJA,53.1838616,-114.3186127
3231,ChIJ2XKJztEcoFMRFrv-Lil-6Jw,53.34849579999999,-113.4227952
3232,ChIJaf_7RX75n1MRoPoGDmq945A,53.2587882,-113.5809391
3234,ChIJ6Sch674coFMRtypWiSOpqdc,53.3623241,-113.408178
3235,ChIJD8NEomDxn1MRSxYvT3PoRsE,53.3654428,-113.7198109
3236,ChIJlZUa4WPxn1MRSgezW8kZB8A,53.3637601,-113.7270164
3237,ChIJP7Bz8l3xn1MRhD_opCIR1sQ,53.3636989,-113.71628
3238,EjI0MzMwIEJsYWNrIEdvbGQgRHIgIzEwNCwgTGVkdWMsIEFCIFQ5RSAzQzMsIENhbmFkYSIfGh0KFgoUChIJgVpFvwz5n1MR9W-FXgXyMsQSAzEwNA,53.2570894,-113.5277487
3270,ChIJOxChQxT5n1MRcLm99OMJvR0,53.2527256,-113.5345394
3271,ChIJKxj-rH_5n1MRP8INBbxgCbY,53.25924699999999,-113.580476
3272,ChIJFyIiMT35n1MR24BEDd9MLm8,53.2497836,-113.5204436
3290,EicyMDUgTWlxdWVsb24gQXZlLCBEZXZvbiwgQUIgVDlHLCBDYW5hZGEiMRIvChQKEgl_T3kZcfGfUxG9EfeTILJFohDNASoUChIJu2ygGXHxn1MR9Nev18s_hTI,53.3523687,-113.7322132
3301,ChIJzQyBP2oVoFMRqMauVFObyQM,53.5618243,-113.1469153
3303,ChIJ-9C4H2oVoFMR5yZAgP85pQM,53.5629335,-113.1469535
3304,ChIJUSySW6BsoFMRyJRVfbXfHDY,53.5111617,-113.0275539
3307,EjcyMCBGZXN0aXZhbCBXYXkgIzEyNCwgU2hlcndvb2QgUGFyaywgQUIgVDhBIDRZMSwgQ2FuYWRhIh8aHQoWChQKEgmd3E2myhegUxHg0i8kltXnVRIDMTI0,53.5255388,-113.3007542
3310,ChIJLVNvqphHoFMRG80kH2MKuWM,53.712024,-113.2032392
3311,ChIJDfIUHZ1HoFMRQE4MUULtr4c,53.7065717,-113.2143301
3313,ChIJhai-aZxHoFMRoU17Y6rRX5g,53.708558,-113.212607
3316,ChIJUaV004Y4oFMR7E04QVHQsPg,53.6958175,-113.2362343
3321,ChIJI5Jm1EEWoFMR743dd9mBL5s,53.5297496,-113.2659227
3322,ChIJndxNpsoXoFMR4NIvJJbV51U,53.5255388,-113.3007542
3323,ChIJz7pz0bYXoFMRUCd_mB8NGX8,53.5190733,-113.3065423
3324,ChIJC4RGCE0WoFMRCfIwleMTkzY,53.518786,-113.28868
3325,ChIJZ73Q2bkXoFMR4VNDGcyUl-g,53.5195588,-113.313081
3326,ChIJ4wuOdLQXoFMRO5i4asBRtBY,53.5201962,-113.3013065
3328,ChIJvZHxQsYXoFMRrD5Y_JLGp_c,53.52583240000001,-113.3216787
3329,ChIJmUshni0WoFMR8b0JbNUojno,53.53711570000001,-113.3057458
3330,ChIJvZMlTy0WoFMRP7HUcL3Ex-4,53.5364017,-113.3087792
3332,ChIJWfbTwaJPoFMR4vdOcoarmlk,53.8021933,-113.0775096
3333,ChIJpyZbdTwWoFMRfBojJ0jfkHY,53.5365499,-113.282029
3334,ChIJeZwtAEgWoFMR8bxHi7Fh2G0,53.5294123,-113.2841032
3335,EjU1MjAyOSBSYW5nZSBSZCAyMjQsIFNoZXJ3b29kIFBhcmssIEFCIFQ4QyAxQjUsIENhbmFkYSIuKiwKFAoSCbdx3QJBEaBTEc20_U0Hzj2dEhQKEgnhCD3VWhGgUxFYJ0-LE3PAJQ,53.45823,-113.1904373
3336,ChIJZdQbEMUXoFMRaN_yn3KDPeM,53.5302371,-113.3242894
3339,ChIJg0OtDrYXoFMR7jUTtLOv6JM,53.5233044,-113.3070475
3340,ChIJC4yQ7EMWoFMRmcnXvlRmnp4,53.5249142,-113.2690328
3341,ChIJPW8604g4oFMRCu0XmgS2qcs,53.6917561,-113.2455645
3392,Ej0xOTggUmFuZ2UgUmQgMjQ0IDI5OSBCbGRnLCBMYW5jYXN0ZXIgUGFyaywgQUIgVDBBIDJIMCwgQ2FuYWRhIj8aPQoxEi8KFAoSCTEnh2m3OqBTESY0aSq1m1yXEMYBKhQKEgnHPz4ptjqgUxEBLTRBYIuJmxIIMjk5IEJsZGc,53.673716,-113.4918998
3395,ChIJB91951kWoFMRPeQ1JPyjs1Y,53.5135275,-113.2687802
3397,ChIJUVkoW5xHoFMR6mTuCxCgxP4,53.7089164,-113.2128272
3399,ChIJr1hP7Hs5oFMRtA0-y0O3p9k,53.677225,-113.340105
3401,ChIJ2w76UdXooFMRhwqQpI3T1NE,53.8797526,-112.3318285
3404,ChIJW_lL5zpZoFMRhr_sqxVv7n4,53.7599197,-112.7774107
3405,ChIJW_lL5zpZoFMRhr_sqxVv7n4,53.7599197,-112.7774107
3406,ChIJp0G6oBCPoFMRe0pyzYSFPK0,53.5926424,-112.3405883
3409,ChIJG39Tw3laoFMRvWY5VVb1f5Y,53.8034493,-112.9261802
3503,ChIJJXcdos-7ClMRFKORilyWC0s,53.0199237,-112.8339947
3505,ChIJgd7Tf9O7ClMRKgu_pSeGDq8,53.0110063,-112.8377226
3506,ChIJpeYWt92DClMRv_EOU6SMwRs,53.2894172,-112.4282693
3508,ChIJB48uCm93oFMR9h3ajAN1vbo,53.3675436,-112.6585353
3509,ChIJB48uCm93oFMR9h3ajAN1vbo,53.3675436,-112.6585353
3510,ChIJxYs-MsBCClMReJGC3LV6fec,53.09716170000001,-111.7755614
3511,ChIJJXcdos-7ClMRFKORilyWC0s,53.0199237,-112.8339947
3512,ChIJJXcdos-7ClMRFKORilyWC0s,53.0199237,-112.8339947
3602,ChIJtaoxpbAPClMRo-XYEvPWPYA,53.3815244,-111.5297
3604,ChIJJXZCjuYdClMRGBzsF18KtUg,53.3402273,-111.1751771
3610,ChIJ7dZTHUScoFMRewrSOYIhZG4,53.4946496,-112.0536518
3611,ChIJ-xWCiUScoFMRvIXRlkCOdbE,53.493779,-112.0572289
3614,ChIJBY4yxkcaClMRWSkNcK0rQWs,53.31525509999999,-111.3663128
3615,ChIJ7dZTHUScoFMR3Wu4vBnCLsg,53.4946496,-112.0536518
3616,ChIJJXZCjuYdClMRGBzsF18KtUg,53.3402273,-111.1751771
3670,ChIJE7qh3DucoFMRSJyuY0892xQ,53.4971378,-112.0359855
3671,ChIJyfXCQ1qcoFMRnLYLH_Wzqe8,53.48941379999999,-112.0641727
3694,ChIJvyyRgx5HdVMRRHL3Q4Et6y4,52.834432,-113.447207
3703,ChIJ0YccN8BWp1MR4dByJbb8aes,53.6611524,-111.2308465
3707,ChIJ7xiLIH-woFMRySfstg8rK5E,53.7103441,-111.7461105
3711,ChIJ7xiLIH-woFMRySfstg8rK5E,53.7103441,-111.7461105
3803,ChIJs_K2UF7aCVMRuwXXXHo0sJc,53.58735919999999,-110.522095
3805,ChIJBxYOLLG5CVMRmX9kc9a8pxo,53.3415589,-110.3340414
3806,ChIJBxYOLLG5CVMRmX9kc9a8pxo,53.3415589,-110.3340414
3808,ChIJ04xAU_DOCVMRHLbDBI0U3TA,53.51543909999999,-110.3314451
3809,ChIJ84vKzqXWC1MRLevBzS6WRPE,52.8380464,-110.86989
3811,ChIJHY8lJZkKCVMRSwumJbcaVTs,53.0328722,-110.2977231
3815,ChIJZy7xG5jtCVMRZn_-DKDXSjE,53.35513,-110.840051
3816,ChIJxTcmbKLtCVMRdw5u3RD_SS4,53.3524932,-110.8348365
3821,ChIJ04xAU_DOCVMRHLbDBI0U3TA,53.51543909999999,-110.3314451
3840,ChIJH7GRkIazCVMRDqY4JWB-c1g,53.275293,-110.0212311
3841,ChIJCeMrXXHzCVMRvu_WZTHm1RE,53.3503049,-110.858262
3842,ChIJU_8B-n2tCVMRojTk8Ba8NBQ,53.26662160000001,-110.0112356
3845,ChIJnTBRzZSyCVMRon1nvmL_cag,53.2895622,-110.0086552
3846,ChIJ5QaWI36yCVMR9vxg0RNk2DM,53.2689126,-110.0238754
3848,ChIJa7-XaICyCVMRSipPYNG96ZE,53.2677112,-110.019693
3852,ChIJ0Yd2pnqyCVMRsktisARPOWA,53.2719629,-110.0424221
3853,ChIJZWlwAIGtCVMRveoSUwkdM-E,53.2619994,-110.0222555
3854,ChIJE2lHenqyCVMRdICazSO6MBc,53.2697032,-110.0405485
3870,ChIJMTvG8JjtCVMRhoxRmy25imI,53.3523495,-110.839494
3890,ChIJCeMrXXHzCVMRvu_WZTHm1RE,53.3503049,-110.858262
3892,ChIJs_K2UF7aCVMRuwXXXHo0sJc,53.58735919999999,-110.522095
3893,ChIJBUw7KI9Lv1MRpKvWn35j214,58.38733250000001,-116.0197006
3902,ChIJdUilFjJACVMRp6LKfonJ_TQ,52.6976312,-110.1433665
3904,ChIJUby0bcZlCVMRHgL3QAfOxpI,52.7601946,-110.4586065
3906,ChIJWYWaPYAzClMRl9Gqbj0xiUs,52.9137,-111.230107
3909,ChIJrcAe5aDWC1MRFnxmL0bW2zA,52.84229999999999,-110.86589
3910,ChIJ2_x0-5jWC1MR6l9bBewJmmA,52.8386278,-110.8540267
3912,ChIJWYWaPYAzClMRl9Gqbj0xiUs,52.9137,-111.230107
3913,ChIJUby0bcZlCVMRHgL3QAfOxpI,52.7601946,-110.4586065
3970,ChIJyUop9L3WC1MRq3UEcDIV5Bo,52.8316485,-110.8517553
3971,ChIJiWM4C4_tCVMR7BKqfsnv-pc,53.3533492,-110.8598712
3972,ChIJiWM4C4_tCVMR7BKqfsnv-pc,53.3533492,-110.8598712
4101,ChIJjyGCBngqdFMRU-AN4pk2vCY,52.0935175,-114.7394913
4102,ChIJ5dzs5CLPdVMRyZuP63UxCGA,52.3264393,-114.5552538
4103,ChIJ5dzs5CLPdVMRyZuP63UxCGA,52.3264393,-114.5552538
4105,ChIJ4cCUns3edVMRkLgqH99ABRg,52.38263,-114.91924
4106,ChIJRWJmDS7ZdVMRsHev8JfajWk,52.3739857,-114.9149546
4107,ChIJfUMhp9PedVMRHfun4ZzveUY,52.3812612,-114.9259596
4109,ChIJG9GIhtHedVMR2J7iHSk4rwo,52.3842156,-114.9263597
4111,ChIJ1dcSd9vedVMRMrVT7K2hX5g,52.3923006,-114.9347293
4170,ChIJzzJv7NDedVMREhIgK_mgl_w,52.38658,-114.93199
4190,ChIJnxF0NigvdlMRD6qo41fsUJw,52.467986,-116.081488
4191,ChIJsaZ2Ty7ZdVMRdpA6-2JYXaI,52.37305869999999,-114.9155283
4192,ChIJiWiY8tLedVMRB931kevnVJk,52.3810532,-114.9221846
4195,ChIJ06PVaCzZdVMRcjrcWfeAiYQ,52.3776203,-114.9137542
4201,ChIJjyCx256JnVMRxy_KcGvCPoM,52.3251528,-113.8609792
4202,ChIJZyEIaQ8EdVMR4QiD7AZbxw4,52.46484969999999,-113.7331594
4203,EiY2MDAwIEh3eSAyLCBHcmFudW0sIEFCIFQwTCAxQTAsIENhbmFkYSIxEi8KFAoSCQ_4K9CGOG5TEb7YnvSoLleBEPAuKhQKEgmPILHbnomdUxHHL8pwa8I-gw,49.9386808,-113.5409826
4204,ChIJ6YxIU9MVdVMRi3USb5wkSU8,52.6775701,-113.5770494
4205,ChIJX3fDq8wVdVMRX5NDOq7taWs,52.68651300000001,-113.58509
4207,ChIJ5-ALny4UdVMR6Yi7-ltKUMM,52.6764788,-113.5860172
4209,ChIJDxvcormYdVMR6x9eia9Y1A4,52.6396816,-114.2358931
4210,ChIJDxvcormYdVMR6x9eia9Y1A4,52.6396816,-114.2358931
4213,EiY2MDAwIEh3eSAyLCBHcmFudW0sIEFCIFQwTCAxQTAsIENhbmFkYSIxEi8KFAoSCQ_4K9CGOG5TEb7YnvSoLleBEPAuKhQKEgmPILHbnomdUxHHL8pwa8I-gw,49.9386808,-113.5409826
4270,ChIJ9fwX5ygUdVMRZd8WZ9c7JmM,52.6732471,-113.5881425
4282,ChIJPwgnIcBjdVMRC6GcWnsZQNU,52.9735756,-113.9636431
4284,ChIJvyyRgx5HdVMRRHL3Q4Et6y4,52.834432,-113.447207
4285,ChIJx5L6oI6cdVMRQktyFWqcBLg,52.7490049,-114.290479
4287,ChIJvyyRgx5HdVMRRHL3Q4Et6y4,52.834432,-113.447207
4288,ChIJvyyRgx5HdVMRRHL3Q4Et6y4,52.834432,-113.447207
4289,EhZId3kgMiwgQWxiZXJ0YSwgQ2FuYWRhIi4qLAoUChIJjyCx256JnVMRxy_KcGvCPoMSFAoSCb8skYMeR3VTEURy90OBLesu,52.3251528,-113.8609792
4290,ChIJvyyRgx5HdVMRRHL3Q4Et6y4,52.834432,-113.447207
4291,ChIJvyyRgx5HdVMRRHL3Q4Et6y4,52.834432,-113.447207
4292,ChIJvyyRgx5HdVMRRHL3Q4Et6y4,52.834432,-113.447207
4293,ChIJ6YxIU9MVdVMR49pwoXzwUww,52.6026408,-113.6387008
4294,ChIJ9V45UM8VdVMRwj8XrhXjEMo,52.6892749,-113.5704
4298,ChIJDxvcormYdVMR6x9eia9Y1A4,52.6396816,-114.2358931
4299,ChIJ6YxIU9MVdVMRX_5kBmUkCgw,52.6775701,-113.5770494
4301,ChIJhxotjn3edFMRk52x682_aBo,52.3987522,-113.1929197
4302,ChIJB9uN0rKodVMR7_f9bFHstn4,52.4650761,-114.0496804
4304,ChIJQe8z224AdVMRRRjJIXEAbok,52.381198,-113.7953731
4305,ChIJAWYDJ4kedVMREhDRpAEB1sM,52.4777055,-113.4474099
4306,ChIJhX30-TW2dVMRPgKi-TwC5uA,52.3629037,-114.370515
4307,ChIJ2RnLPBoEdVMR7GzbWlyvgI0,52.47142890000001,-113.74332
4308,ChIJVRTKRBEEdVMRySYe8_2UsRo,52.4734237,-113.7343461
4309,ChIJR_RhjREEdVMR4wM2QIyFXD0,52.4705632,-113.7318147
4310,ChIJJx_XjFYAdVMRq72yODL61bw,52.3983015,-113.7750863
4315,ChIJhX30-TW2dVMRPgKi-TwC5uA,52.3629037,-114.370515
4316,ChIJAWYDJ4kedVMREhDRpAEB1sM,52.4777055,-113.4474099
4317,ChIJDxvcormYdVMR6x9eia9Y1A4,52.6396816,-114.2358931
4319,ChIJDw_DHw4EdVMR_PPQQyfAaNQ,52.4692247,-113.7316754
4320,ChIJhxotjn3edFMRk52x682_aBo,52.3987522,-113.1929197
4321,EiY2MDAwIEh3eSAyLCBHcmFudW0sIEFCIFQwTCAxQTAsIENhbmFkYSIxEi8KFAoSCQ_4K9CGOG5TEb7YnvSoLleBEPAuKhQKEgmPILHbnomdUxHHL8pwa8I-gw,49.9386808,-113.5409826
4322,ChIJjSxuAxEEdVMRWvTpZY0YTNY,52.4716528,-113.7358271
4390,ChIJ-WC-rkcEdVMRVhL7yfJH96g,52.488781,-113.7341517
4392,ChIJo2JulBwEdVMREuL7xwH-5sM,52.46738029999999,-113.7478338
4394,ChIJw3q9ydGydVMRvG-OfhyZHic,52.2968334,-114.0986865
4395,ChIJkeuQWi7ZdVMRY1avgAwjhyU,52.37305869999999,-114.9155283
4402,ChIJC4EyzFwVdFMRvVtK2c5ykpI,51.93275860000001,-114.0346226
4403,ChIJtdGKGALsdFMRkukQcr2zO44,52.19740119999999,-113.2387899
4404,ChIJTTeot9SPdFMRE6Z8IBmwNXc,51.9926718,-113.1996402
4405,ChIJX5vhOGZBdFMR9OILW0H62bo,52.0236385,-113.9532441
4406,ChIJKWWYqGhBdFMRgVh-T2_ROFE,52.0222275,-113.9540016
4407,ChIJpU8xHMdadFMR-RPdu7iksZQ,52.1365002,-113.8727638
4408,ChIJk6xtY07_c1MRIvC9zUFKudw,52.02763359999999,-113.948677
4410,ChIJvWAKdn8wdFMRQOetKzy-Pgs,51.9435446,-114.3387238
4411,ChIJ37huLduydVMRVJuMBq9A9cI,52.302798,-114.102226
4412,ChIJvcKhxLiydVMRi8xteJ16JAQ,52.3075623,-114.0849741
4413,ChIJ7x__v25GnlMRe6H0bwbG_no,52.1499388,-113.9063245
4414,ChIJpU8xHMdadFMR-RPdu7iksZQ,52.1365002,-113.8727638
4415,ChIJu9xIXM-ydVMRtYBecMdGMkA,52.3010472,-114.0930728
4416,ChIJpU8xHMdadFMR-RPdu7iksZQ,52.1365002,-113.8727638
4417,ChIJX6JiXsWydVMRiaiohMm8fN8,52.30056,-114.09795
4418,ChIJCcHZr2BBdFMRxbKoNKZSeBI,52.0276771,-113.9480184
4419,ChIJwZD4rTEEdFMRrs3Z2UtC7hc,51.6568097,-114.1367837
4420,ChIJFzuvgQiidlMRpP8KwAbV9mo,51.8076988,-114.6338938
4421,ChIJX5vhOGZBdFMR9OILW0H62bo,52.0236385,-113.9532441
4423,ChIJLxcjRvcQdFMRmjOLrrCKw7U,51.7958041,-114.1124434
4425,ChIJLxcjRvcQdFMRmjOLrrCKw7U,51.7958041,-114.1124434
4432,ChIJ6TiF6C1UdFMR9nZBnxv5jIs,52.27167069999999,-113.8056021
4433,ChIJgWaTvGdWdFMR-AfOCbpRmCY,52.249899,-113.762758
4435,ChIJb2xx2LFVdFMR_Kj8w4R6zzw,52.29511489999999,-113.8065472
4436,ChIJJ-sI8YdWdFMRqjexJ1JXBcM,52.2559073,-113.784001
4437,ChIJY0zAPy5UdFMR-3wlijHEfz4,52.270929,-113.8068345
4439,ChIJP3xKu4BWdFMRXUZvTTo0hqI,52.260545,-113.788673
4440,ChIJqXBKHDxUdFMRJftslkCPU-E,52.2735552,-113.8282425
4442,ChIJkwAX0pFWdFMRd7n2qb7_y1s,52.24919329999999,-113.7964929
4443,ChIJ1fq82n5WdFMRFeErV9yS_94,52.2632395,-113.7820169
4444,ChIJKzmvSsxVdFMRvnSjl2FSgRc,52.2777264,-113.7964292
4445,ChIJ1as7QIVWdFMRRucB7iGYHh0,52.2534159,-113.7971191
4447,ChIJ4wrCZVFUdFMRb7fOer8_uE0,52.2941771,-113.828715
4448,ChIJqU8dqGpUdFMRbbeBcpIQaYE,52.2774921,-113.8396696
4452,ChIJC2besx9UdFMRAzX2CORaLaw,52.2587372,-113.8266
4454,ChIJ-zVwyqZWdFMR5YO3pMlSg0c,52.252926,-113.8268127
4455,ChIJEwIfnkVUdFMROK1N_NOSkSo,52.2869795,-113.8317916
4457,ChIJS8KBq_hUdFMRf1kfsm6vCoU,52.3009473,-113.8338774
